{"type":"FeatureCollection","features":[{"type":"Feature","properties":{"Name":"\nセブンイレブン 衆議院第一議員会館店\n","Address":"東京都千代田区永田町2丁目2番1号"},"geometry":{"type":"Point","coordinates":[139.743009,35.6745788]}},{"type":"Feature","properties":{"Name":"\nセブンイレブン 丸の内二重橋ビル店\n","Address":"東京都千代田区丸の内3丁目2-2"},"geometry":{"type":"Point","coordinates":[139.7611527,35.6780968]}},{"type":"Feature","properties":{"Name":"\nニューデイズ御茶ノ水\n","Address":"東京都千代田区神田駿河台2丁目6-1"},"geometry":{"type":"Point","coordinates":[139.763783,35.6996952]}},{"type":"Feature","properties":{"Name":"\ncisca岩本町店\n","Address":"東京都千代田区岩本町2丁目4-5"},"geometry":{"type":"Point","coordinates":[139.7755102,35.6941771]}},{"type":"Feature","properties":{"Name":"\nニューデイズ飯田橋1号\n","Address":"東京都千代田区飯田橋4丁目10-2"},"geometry":{"type":"Point","coordinates":[139.7450226,35.7020741]}},{"type":"Feature","properties":{"Name":"\nciscaグラントウキョウ店\n","Address":"東京都千代田区丸の内1丁目9-1"},"geometry":{"type":"Point","coordinates":[139.7661852,35.6817299]}},{"type":"Feature","properties":{"Name":"\nニューデイズ神田南口\n","Address":"東京都千代田区鍛冶町2丁目13-1"},"geometry":{"type":"Point","coordinates":[139.7708646,35.691666]}},{"type":"Feature","properties":{"Name":"\nニューデイズグランスタ八重洲八重洲北口\n","Address":"東京都千代田区丸の内1丁目9-1"},"geometry":{"type":"Point","coordinates":[139.7661852,35.6817299]}},{"type":"Feature","properties":{"Name":"\n生活彩家日比谷U-1ビル店\n","Address":"東京都千代田区内幸町1丁目1-7"},"geometry":{"type":"Point","coordinates":[139.7576868,35.6717988]}},{"type":"Feature","properties":{"Name":"\nニューデイズ神田北口\n","Address":"東京都千代田区鍛冶町2丁目13-1"},"geometry":{"type":"Point","coordinates":[139.7708646,35.691666]}},{"type":"Feature","properties":{"Name":"\nNEWDAYS(ニューデイズ) 東京八重洲中央店\n","Address":"東京都千代田区丸の内1 東京駅改札内"},"geometry":{"type":"Point","coordinates":[139.7671248,35.68123620000001]}},{"type":"Feature","properties":{"Name":"\nセブン-イレブン ワテラス店\n","Address":"東京都千代田区神田淡路町2-105 ワテラス 3F"},"geometry":{"type":"Point","coordinates":[139.7680187,35.6976572]}},{"type":"Feature","properties":{"Name":"\nFamily Mart(ファミリーマート) 東京家庭裁判所内店\n","Address":"東京都千代田区霞が関1-1-2"},"geometry":{"type":"Point","coordinates":[139.7539486,35.674696]}},{"type":"Feature","properties":{"Name":"\nファミマ東京ガーデンテラス店\n","Address":"東京都千代田区紀尾井町1-2 東京ガーデンテラス紀尾井町 2F"},"geometry":{"type":"Point","coordinates":[139.7370977,35.6795169]}},{"type":"Feature","properties":{"Name":"\nNewDays KIOSK(ニューデイズキオスク) グランスタ店\n","Address":"東京都千代田区丸の内1-9-1 JR東日本東京駅構内B1F改札内 GRANSTA"},"geometry":{"type":"Point","coordinates":[139.766874,35.681343]}},{"type":"Feature","properties":{"Name":"\nNEWDAYS(ニューデイズ) 水道橋東口店\n","Address":"東京都千代田区三崎町2 水道橋駅東口改札外"},"geometry":{"type":"Point","coordinates":[139.7535016,35.7020484]}},{"type":"Feature","properties":{"Name":"\nNEWDAYS(ニューデイズ) 有楽町中央店\n","Address":"東京都千代田区有楽町2 JR有楽町駅中央口改札内"},"geometry":{"type":"Point","coordinates":[139.7628199,35.6749187]}},{"type":"Feature","properties":{"Name":"\nNEWDAYS(ニューデイズ) 飯田橋1号店\n","Address":"東京都千代田区飯田橋4-10-2 飯田橋駅東口改札外正面"},"geometry":{"type":"Point","coordinates":[139.7450232,35.7020837]}},{"type":"Feature","properties":{"Name":"\nNEWDAYSMINI(ニューデイズミニ) 京葉2B店\n","Address":"東京都千代田区丸の内3 東京駅京葉地下3・4番線ホーム内(丸の内方面)"},"geometry":{"type":"Point","coordinates":[139.7671248,35.68123620000001]}},{"type":"Feature","properties":{"Name":"\nNEWDAYSMINI(ニューデイズミニ) 京葉2A店\n","Address":"東京都千代田区丸の内3 東京駅京葉地下3・4番線ホーム内(八丁堀方面)"},"geometry":{"type":"Point","coordinates":[139.7671248,35.68123620000001]}},{"type":"Feature","properties":{"Name":"\nNEWDAYSMINI(ニューデイズミニ) 京葉1B店\n","Address":"東京都千代田区丸の内3東京駅京葉地下1・2番線ホーム(丸の内方面)"},"geometry":{"type":"Point","coordinates":[139.7671248,35.68123620000001]}},{"type":"Feature","properties":{"Name":"\nNEWDAYSMINI(ニューデイズミニ) 京葉1A店\n","Address":"東京都千代田区丸の内3東京駅京葉地下1・2番線ホーム(八丁堀方面)"},"geometry":{"type":"Point","coordinates":[139.7671248,35.68123620000001]}},{"type":"Feature","properties":{"Name":"\nNEWDAYSMINI(ニューデイズミニ) 東ホ3A店\n","Address":"東京都千代田区丸の内1 東京駅東海道線7・8番線ホーム(新橋方面)"},"geometry":{"type":"Point","coordinates":[139.7671248,35.68123620000001]}},{"type":"Feature","properties":{"Name":"\nNEWDAYSMINI(ニューデイズミニ) 改札13号店\n","Address":"東京都千代田区丸の内1 東京駅北自由通路3・4番線ホーム上り口"},"geometry":{"type":"Point","coordinates":[139.7671248,35.68123620000001]}},{"type":"Feature","properties":{"Name":"\nNEWDAYSMINI(ニューデイズミニ) 丸地下7号店\n","Address":"東京都千代田区丸の内1 東京駅丸の内地下4階改札内"},"geometry":{"type":"Point","coordinates":[139.766874,35.681343]}},{"type":"Feature","properties":{"Name":"\nNEWDAYSMINI(ニューデイズミニ) 丸地下2A店\n","Address":"東京都千代田区丸の内1 東京駅総武線地下3・4番線ホーム中央"},"geometry":{"type":"Point","coordinates":[139.7671248,35.68123620000001]}},{"type":"Feature","properties":{"Name":"\nNEWDAYS(ニューデイズ) 東京店\n","Address":"東京都千代田区丸の内1 東京駅丸の内地下北口改札外"},"geometry":{"type":"Point","coordinates":[139.7671248,35.68123620000001]}},{"type":"Feature","properties":{"Name":"\nNEWDAYS(ニューデイズ) 東京京葉ストリート店\n","Address":"東京都千代田区丸の内1 東京駅八重洲南改札内京葉ストリート内"},"geometry":{"type":"Point","coordinates":[139.7671316,35.679913]}},{"type":"Feature","properties":{"Name":"\nNewDays(ニューデイズ) グランスタ八重洲北口店\n","Address":"東京都千代田区丸の内1-9-1 JR東日本東京駅構内B1F改札外 GRANSTA"},"geometry":{"type":"Point","coordinates":[139.766874,35.681343]}},{"type":"Feature","properties":{"Name":"\nNewDays(ニューデイズ) グランスタ丸の内南口店\n","Address":"東京都千代田区丸の内1-9-1 JR東日本東京駅構内B1F改札外 GRANSTA MARUNOUCHI"},"geometry":{"type":"Point","coordinates":[139.766874,35.681343]}},{"type":"Feature","properties":{"Name":"\nNEWDAYS MINI(ニューデイズミニ) 秋葉原1号店\n","Address":"東京都千代田区外神田1 秋葉原駅5番線総武線上りホーム中央"},"geometry":{"type":"Point","coordinates":[139.7730717,35.698383]}},{"type":"Feature","properties":{"Name":"\nNEWDAYSMINI(ニューデイズミニ) 秋葉原3号店\n","Address":"東京都千代田区神田佐久間町1 秋葉原駅昭和通口改札外"},"geometry":{"type":"Point","coordinates":[139.774749,35.697892]}},{"type":"Feature","properties":{"Name":"\nNEWDAYS(ニューデイズ) 市ヶ谷店\n","Address":"東京都千代田区五番町 市ヶ谷駅構内改札正面"},"geometry":{"type":"Point","coordinates":[139.7355674,35.6910121]}},{"type":"Feature","properties":{"Name":"\nNEWDAYS(ニューデイズ) 水道橋店\n","Address":"東京都千代田区三崎町2丁目 水道橋駅西口"},"geometry":{"type":"Point","coordinates":[139.7535016,35.7020484]}},{"type":"Feature","properties":{"Name":"\nNEWDAYSMINI(ニューデイズミニ) 東ホ5C店\n","Address":"東京都千代田区丸の内1-9 東京駅20・21番線ホーム内(神田方面)"},"geometry":{"type":"Point","coordinates":[139.7671248,35.68123620000001]}},{"type":"Feature","properties":{"Name":"\nセブン-イレブン YURAKUCHO ITOCiA店\n","Address":"東京都千代田区有楽町2-7-1 YURAKUCHO ITOCiA・イトシアフードアベニューB1F"},"geometry":{"type":"Point","coordinates":[139.763217,35.6741871]}},{"type":"Feature","properties":{"Name":"\nポプラ 麹町店\n","Address":"東京都千代田区麹町6-2-1 麹町サイトビル 1F"},"geometry":{"type":"Point","coordinates":[139.733212,35.6851487]}},{"type":"Feature","properties":{"Name":"\nポプラ 三崎町1丁目店\n","Address":"東京都千代田区三崎町1-1-17 ハヤシビル"},"geometry":{"type":"Point","coordinates":[139.7568824,35.7003519]}},{"type":"Feature","properties":{"Name":"\nスリーエイト 神田東店\n","Address":"東京都千代田区神田東松下町27"},"geometry":{"type":"Point","coordinates":[139.7734134,35.6948572]}},{"type":"Feature","properties":{"Name":"\n生活彩家 霞が関ビル店\n","Address":"東京都千代田区霞が関3-2-5 霞が関ビル 3F"},"geometry":{"type":"Point","coordinates":[139.7472406,35.671183]}},{"type":"Feature","properties":{"Name":"\n生活彩家 日本ビルディング店\n","Address":"東京都千代田区大手町2-6-2 日本ビルヂング地下1F"},"geometry":{"type":"Point","coordinates":[139.7692878,35.6851565]}},{"type":"Feature","properties":{"Name":"\n生活彩家 アーバンネット大手町店\n","Address":"東京都千代田区大手町2-2-2 アーバンネット大手町ビル地下1F"},"geometry":{"type":"Point","coordinates":[139.7670901,35.6858057]}},{"type":"Feature","properties":{"Name":"\n生活彩家 九段南1丁目店\n","Address":"東京都千代田区九段南1-2 九段第三合同庁舎10F"},"geometry":{"type":"Point","coordinates":[139.7536153,35.6940427]}},{"type":"Feature","properties":{"Name":"\n生活彩家 秋葉原駅前店\n","Address":"東京都千代田区神田佐久間町1-6-5"},"geometry":{"type":"Point","coordinates":[139.7737142,35.69789859999999]}},{"type":"Feature","properties":{"Name":"\n生活彩家 神田錦町店\n","Address":"東京都千代田区神田錦町3-15"},"geometry":{"type":"Point","coordinates":[139.7615225,35.6917921]}},{"type":"Feature","properties":{"Name":"\n生活彩家 日比谷シティ店\n","Address":"東京都千代田区内幸町2-2-3 日比谷国際ビルディング1F"},"geometry":{"type":"Point","coordinates":[139.7544269,35.6703345]}},{"type":"Feature","properties":{"Name":"\n生活彩家 御茶の水駅前店\n","Address":"東京都千代田区神田駿河台2-10 駿台興業ビル1F"},"geometry":{"type":"Point","coordinates":[139.764274,35.6989386]}},{"type":"Feature","properties":{"Name":"\n生活彩家 NBF日比谷ビル店\n","Address":"東京都千代田区内幸町1-1-7"},"geometry":{"type":"Point","coordinates":[139.7576868,35.6717988]}},{"type":"Feature","properties":{"Name":"\nファミマ サウスタワー店\n","Address":"東京都千代田区丸の内1-9-2"},"geometry":{"type":"Point","coordinates":[139.7673746,35.6786371]}},{"type":"Feature","properties":{"Name":"\nファミリーマート ホテルニュー神田店\n","Address":"東京都千代田区神田淡路町2-10"},"geometry":{"type":"Point","coordinates":[139.768254,35.697203]}},{"type":"Feature","properties":{"Name":"\nファミマ 秋葉原UDX店\n","Address":"東京都千代田区外神田4-14-1"},"geometry":{"type":"Point","coordinates":[139.7727147,35.7005674]}},{"type":"Feature","properties":{"Name":"\nファミマ 東京ガーデンテラス店\n","Address":"東京都千代田区紀尾井町1-3"},"geometry":{"type":"Point","coordinates":[139.7368974,35.6795844]}},{"type":"Feature","properties":{"Name":"\nローソン 岩本町三丁目店\n","Address":"東京都千代田区岩本町3-7-16"},"geometry":{"type":"Point","coordinates":[139.7778132,35.69572369999999]}},{"type":"Feature","properties":{"Name":"\nローソン 麹町五丁目店\n","Address":"東京都千代田区麹町5-1"},"geometry":{"type":"Point","coordinates":[139.7345151,35.6838031]}},{"type":"Feature","properties":{"Name":"\nローソン 丸の内仲通りビル店\n","Address":"東京都千代田区丸の内2-2-3"},"geometry":{"type":"Point","coordinates":[139.7625659,35.6801535]}},{"type":"Feature","properties":{"Name":"\nローソン 九段北目白通店\n","Address":"東京都千代田区九段北1-11-5"},"geometry":{"type":"Point","coordinates":[139.751113,35.6970228]}},{"type":"Feature","properties":{"Name":"\nローソン 丸の内国際ビル店\n","Address":"東京都千代田区丸の内3-1-1"},"geometry":{"type":"Point","coordinates":[139.7611088,35.6767601]}},{"type":"Feature","properties":{"Name":"\nローソン JPローソン東京逓信病院店\n","Address":"東京都千代田区富士見2-14-23"},"geometry":{"type":"Point","coordinates":[139.7432554,35.6975818]}},{"type":"Feature","properties":{"Name":"\nローソン 丸の内二重橋前店\n","Address":"東京都千代田区丸の内2-3-1"},"geometry":{"type":"Point","coordinates":[139.7624955,35.6811442]}},{"type":"Feature","properties":{"Name":"\nローソン 秋葉原北口店\n","Address":"東京都千代田区神田練塀町55"},"geometry":{"type":"Point","coordinates":[139.7747782,35.7006127]}},{"type":"Feature","properties":{"Name":"\nローソン 合同庁舎第7号館店\n","Address":"東京都千代田区霞が関3-2-2 中央合同庁舎第7号館"},"geometry":{"type":"Point","coordinates":[139.7479988,35.6717464]}},{"type":"Feature","properties":{"Name":"\nローソン 西神田二丁目店\n","Address":"東京都千代田区西神田2-5-2"},"geometry":{"type":"Point","coordinates":[139.7543341,35.6986081]}},{"type":"Feature","properties":{"Name":"\nローソン 有楽町一丁目店\n","Address":"東京都千代田区有楽町1-7-1"},"geometry":{"type":"Point","coordinates":[139.762812,35.6747724]}},{"type":"Feature","properties":{"Name":"\nローソン 丸の内パークビル店\n","Address":"東京都千代田区丸の内2-6-1"},"geometry":{"type":"Point","coordinates":[139.7625325,35.6785703]}},{"type":"Feature","properties":{"Name":"\nローソン 神田駿河台一丁目店\n","Address":"東京都千代田区神田駿河台1-6-5"},"geometry":{"type":"Point","coordinates":[139.7633662,35.6970238]}},{"type":"Feature","properties":{"Name":"\nローソン 麹町二丁目店\n","Address":"東京都千代田区麹町2-7-3"},"geometry":{"type":"Point","coordinates":[139.7411211,35.6835033]}},{"type":"Feature","properties":{"Name":"\nローソン 内幸町一丁目店\n","Address":"東京都千代田区内幸町1-3-3"},"geometry":{"type":"Point","coordinates":[139.7569121,35.6693995]}},{"type":"Feature","properties":{"Name":"\nローソン 大手センタービル店\n","Address":"東京都千代田区大手町1-1-3"},"geometry":{"type":"Point","coordinates":[139.7627356,35.6859664]}},{"type":"Feature","properties":{"Name":"\nローソン 神田駅東口店\n","Address":"東京都千代田区鍛冶町2-2-9"},"geometry":{"type":"Point","coordinates":[139.7714662,35.6915297]}},{"type":"Feature","properties":{"Name":"\nローソン 神田神保町二丁目店\n","Address":"東京都千代田区神田神保町2-4-7"},"geometry":{"type":"Point","coordinates":[139.7562699,35.6961006]}},{"type":"Feature","properties":{"Name":"\nローソン 永田町一丁目店\n","Address":"東京都千代田区永田町1-11-28"},"geometry":{"type":"Point","coordinates":[139.7408949,35.6786026]}},{"type":"Feature","properties":{"Name":"\nローソン 九段北一丁目店\n","Address":"東京都千代田区九段北1-5-10"},"geometry":{"type":"Point","coordinates":[139.7520956,35.6964874]}},{"type":"Feature","properties":{"Name":"\nナチュラルローソン 新東京ビル店\n","Address":"東京都千代田区丸の内3-3-1"},"geometry":{"type":"Point","coordinates":[139.7629532,35.6775033]}},{"type":"Feature","properties":{"Name":"\nナチュラルローソン 大手町ビル店\n","Address":"東京都千代田区大手町1-6-1"},"geometry":{"type":"Point","coordinates":[139.7648547,35.6863979]}},{"type":"Feature","properties":{"Name":"\nローソン 神保町メトロピア店\n","Address":"東京都千代田区神田神保町2-2 半蔵門線神保町駅構内"},"geometry":{"type":"Point","coordinates":[139.7578428,35.69594]}},{"type":"Feature","properties":{"Name":"\nナチュラルローソン 日比谷メトロピア店\n","Address":"東京都千代田区有楽町1-5-1先 千代田線日比谷駅構内"},"geometry":{"type":"Point","coordinates":[139.7595952,35.6748881]}},{"type":"Feature","properties":{"Name":"\nナチュラルローソン 大手町メトロピア店\n","Address":"東京都千代田区大手町1-6-1 千代田線大手町駅構内"},"geometry":{"type":"Point","coordinates":[139.76302,35.685144]}},{"type":"Feature","properties":{"Name":"\nナチュラルローソン 大手町西メトロピア店\n","Address":"東京都千代田区大手町1-6-1 半蔵門線大手町駅構内"},"geometry":{"type":"Point","coordinates":[139.7636527,35.6869073]}},{"type":"Feature","properties":{"Name":"\nナチュラルローソン 新霞が関ビル店\n","Address":"東京都千代田区霞が関3-3-2"},"geometry":{"type":"Point","coordinates":[139.7465743,35.6719731]}},{"type":"Feature","properties":{"Name":"\nナチュラルローソン 丸の内ビルディング店\n","Address":"東京都千代田区丸の内2-4-1"},"geometry":{"type":"Point","coordinates":[139.7637838,35.6809759]}},{"type":"Feature","properties":{"Name":"\nナチュラルローソン 都営地下鉄市ヶ谷店\n","Address":"東京都千代田区九段南4-8-22"},"geometry":{"type":"Point","coordinates":[139.736704,35.6922069]}},{"type":"Feature","properties":{"Name":"\nナチュラルローソン NL丸の内マイプラザ店\n","Address":"東京都千代田区丸の内2-1-1"},"geometry":{"type":"Point","coordinates":[139.7620664,35.6788422]}},{"type":"Feature","properties":{"Name":"\nナチュラルローソン 大手町フィナンシャルシティノース店\n","Address":"東京都千代田区大手町1-9-5"},"geometry":{"type":"Point","coordinates":[139.7661584,35.6882501]}},{"type":"Feature","properties":{"Name":"\nナチュラルローソン S大手町フィナンシャルシティサウス店\n","Address":"東京都千代田区大手町1-9-7"},"geometry":{"type":"Point","coordinates":[139.7658185,35.687691]}},{"type":"Feature","properties":{"Name":"\nローソン H新大手町ビル店\n","Address":"東京都千代田区大手町2-2-1"},"geometry":{"type":"Point","coordinates":[139.7671082,35.6849169]}},{"type":"Feature","properties":{"Name":"\nローソン H神田駿河台店\n","Address":"東京都千代田区神田駿河台2-5-4"},"geometry":{"type":"Point","coordinates":[139.7616651,35.7000136]}},{"type":"Feature","properties":{"Name":"\nナチュラルローソン NL飯田橋三丁目店\n","Address":"東京都千代田区飯田橋3-6-5"},"geometry":{"type":"Point","coordinates":[139.7466451,35.70161]}},{"type":"Feature","properties":{"Name":"\nローソン 三崎町二丁目店\n","Address":"東京都千代田区神田三崎町2-17-2"},"geometry":{"type":"Point","coordinates":[139.7534117,35.7012761]}},{"type":"Feature","properties":{"Name":"\nナチュラルローソン NL千代田三番町店\n","Address":"東京都千代田区三番町6-4"},"geometry":{"type":"Point","coordinates":[139.7454682,35.6911446]}},{"type":"Feature","properties":{"Name":"\nナチュラルローソン NL平河町森タワー店\n","Address":"東京都千代田区平河町2-16-1"},"geometry":{"type":"Point","coordinates":[139.7414921,35.6796367]}},{"type":"Feature","properties":{"Name":"\nローソン 神田錦町二丁目店\n","Address":"東京都千代田区神田錦町2-4-1"},"geometry":{"type":"Point","coordinates":[139.7636759,35.6938811]}},{"type":"Feature","properties":{"Name":"\nローソンサテライト JA共済ビル店\n","Address":"東京都千代田区平河町2-7-9"},"geometry":{"type":"Point","coordinates":[139.7399811,35.6807284]}},{"type":"Feature","properties":{"Name":"\nナチュラルローソン 千代田四番町店\n","Address":"東京都千代田区四番町6"},"geometry":{"type":"Point","coordinates":[139.7357099,35.6890923]}},{"type":"Feature","properties":{"Name":"\nローソン TEKKO avenue店\n","Address":"東京都千代田区丸の内1-8-2"},"geometry":{"type":"Point","coordinates":[139.7697832,35.6823037]}},{"type":"Feature","properties":{"Name":"\nナチュラルローソン TEKKO avenue店\n","Address":"東京都千代田区丸の内1-8-2"},"geometry":{"type":"Point","coordinates":[139.7697832,35.6823037]}},{"type":"Feature","properties":{"Name":"\nローソン 神田明神店\n","Address":"東京都千代田区外神田2-5-15"},"geometry":{"type":"Point","coordinates":[139.7688233,35.7000136]}},{"type":"Feature","properties":{"Name":"\nナチュラルローソン NLS帝劇ビル店\n","Address":"東京都千代田区丸の内3-1-1"},"geometry":{"type":"Point","coordinates":[139.7611088,35.6767601]}},{"type":"Feature","properties":{"Name":"\nローソン 内神田二丁目店\n","Address":"東京都千代田区内神田2-10-12"},"geometry":{"type":"Point","coordinates":[139.7679131,35.6908039]}},{"type":"Feature","properties":{"Name":"\nナチュラルローソン NL神田鍛冶町二丁目店\n","Address":"東京都千代田区鍛冶町2-3-2"},"geometry":{"type":"Point","coordinates":[139.7723309,35.6911933]}},{"type":"Feature","properties":{"Name":"\nローソン JPローソン東京中央局店\n","Address":"東京都千代田区丸の内2-7-2JPタワー地下1"},"geometry":{"type":"Point","coordinates":[139.7647665,35.6801314]}},{"type":"Feature","properties":{"Name":"\nローソン 外神田三丁目店\n","Address":"東京都千代田区外神田3-1-10"},"geometry":{"type":"Point","coordinates":[139.7703211,35.7001767]}},{"type":"Feature","properties":{"Name":"\nローソン 大手町二丁目店\n","Address":"東京都千代田区大手町2-3-5"},"geometry":{"type":"Point","coordinates":[139.7677823,35.687803]}},{"type":"Feature","properties":{"Name":"\nローソン JPローソンJPタワー6F店\n","Address":"東京都千代田区丸の内2-7-2JPタワー6階"},"geometry":{"type":"Point","coordinates":[139.7647868,35.6795886]}},{"type":"Feature","properties":{"Name":"\nローソン 飯田橋サクラテラス店\n","Address":"東京都千代田区富士見2-10-2"},"geometry":{"type":"Point","coordinates":[139.7433883,35.6984525]}},{"type":"Feature","properties":{"Name":"\nローソン 内神田三丁目店\n","Address":"東京都千代田区内神田3-5-1"},"geometry":{"type":"Point","coordinates":[139.769319,35.6905521]}},{"type":"Feature","properties":{"Name":"\nローソン THE KAITEKIビル店\n","Address":"東京都千代田区内神田1-13-4"},"geometry":{"type":"Point","coordinates":[139.7649202,35.6911399]}},{"type":"Feature","properties":{"Name":"\nナチュラルローソン 日本大学病院店\n","Address":"東京都千代田区神田駿河台1-6"},"geometry":{"type":"Point","coordinates":[139.762752,35.697346]}},{"type":"Feature","properties":{"Name":"\nローソンサテライト JPタワー丸の内よろず店\n","Address":"東京都千代田区丸の内2-7-2"},"geometry":{"type":"Point","coordinates":[139.7647288,35.6798453]}},{"type":"Feature","properties":{"Name":"\nローソン 神田神保町白山通り店\n","Address":"東京都千代田区神田神保町2-16-2"},"geometry":{"type":"Point","coordinates":[139.7572207,35.6972855]}},{"type":"Feature","properties":{"Name":"\nローソン 千代田神田錦町三丁目店\n","Address":"東京都千代田区神田錦町3-4-2"},"geometry":{"type":"Point","coordinates":[139.7624296,35.6931387]}},{"type":"Feature","properties":{"Name":"\nローソン 千代田一番町店\n","Address":"東京都千代田区一番町4-6"},"geometry":{"type":"Point","coordinates":[139.7434659,35.6884361]}},{"type":"Feature","properties":{"Name":"\nローソン 大手町フィナンシャルシティグランキューブ店\n","Address":"東京都千代田区大手町1-9-2"},"geometry":{"type":"Point","coordinates":[139.764566,35.6887808]}},{"type":"Feature","properties":{"Name":"\nローソン 千代田富士見二丁目店\n","Address":"東京都千代田区富士見2-12-11"},"geometry":{"type":"Point","coordinates":[139.7440754,35.6985839]}},{"type":"Feature","properties":{"Name":"\nローソン 新有楽町ビル店\n","Address":"東京都千代田区有楽町1-12-1"},"geometry":{"type":"Point","coordinates":[139.7619711,35.6755718]}},{"type":"Feature","properties":{"Name":"\nローソン メトロス秋葉原店\n","Address":"東京都千代田区神田佐久間町1-21日比谷線秋葉原駅構内"},"geometry":{"type":"Point","coordinates":[139.775538,35.697874]}},{"type":"Feature","properties":{"Name":"\nナチュラルローソン 日比谷国際ビル店\n","Address":"東京都千代田区内幸町2-2-3"},"geometry":{"type":"Point","coordinates":[139.754314,35.6703262]}},{"type":"Feature","properties":{"Name":"\nローソン メトロス飯田橋店\n","Address":"東京都千代田区飯田橋4-10-3東西線飯田橋駅構内"},"geometry":{"type":"Point","coordinates":[139.7450232,35.7020837]}},{"type":"Feature","properties":{"Name":"\nローソン 秋葉原スクエア店\n","Address":"東京都千代田区神田練塀町85"},"geometry":{"type":"Point","coordinates":[139.774846,35.7013431]}},{"type":"Feature","properties":{"Name":"\nローソンサテライト  JOB HUB SQUARE店\n","Address":"東京都千代田区大手町2-6-2"},"geometry":{"type":"Point","coordinates":[139.769357,35.6849193]}},{"type":"Feature","properties":{"Name":"\nローソン・スリーエフ 万世本店\n","Address":"東京都千代田区神田須田町2-21"},"geometry":{"type":"Point","coordinates":[139.771129,35.696593]}},{"type":"Feature","properties":{"Name":"\nローソン・スリーエフ エドモント店\n","Address":"東京都千代田区飯田橋3-10-8"},"geometry":{"type":"Point","coordinates":[139.7491321,35.7008451]}},{"type":"Feature","properties":{"Name":"\nローソン MC FOREST店\n","Address":"東京都千代田区丸の内2-3-1"},"geometry":{"type":"Point","coordinates":[139.7624955,35.6811442]}},{"type":"Feature","properties":{"Name":"\nローソン JPローソン大手町プレイス2F店\n","Address":"東京都千代田区大手町2-3-1"},"geometry":{"type":"Point","coordinates":[139.7674372,35.6868588]}},{"type":"Feature","properties":{"Name":"\nローソン 末広町駅前店\n","Address":"東京都千代田区外神田6-14-2"},"geometry":{"type":"Point","coordinates":[139.7712772,35.7032799]}},{"type":"Feature","properties":{"Name":"\nファミリーマート 東京高等裁判所内店\n","Address":"東京都千代田区霞が関1丁目1-4地下1階"},"geometry":{"type":"Point","coordinates":[139.7527518,35.6752239]}},{"type":"Feature","properties":{"Name":"\nファミリーマート ファミマサピアタワー店\n","Address":"東京都千代田区丸の内1-7-12"},"geometry":{"type":"Point","coordinates":[139.7684826,35.6837175]}},{"type":"Feature","properties":{"Name":"\nファミリーマート 経済産業省店\n","Address":"東京都千代田区霞が関1丁目3番1号経済産業省庁舎内"},"geometry":{"type":"Point","coordinates":[139.7519454,35.6713101]}},{"type":"Feature","properties":{"Name":"\nファミリーマート 東京家庭裁判所内店\n","Address":"東京都千代田区霞が関1丁目1-2"},"geometry":{"type":"Point","coordinates":[139.7539486,35.674696]}},{"type":"Feature","properties":{"Name":"\nファミリーマート ファミマ東京ガーデンテラス店\n","Address":"東京都千代田区紀尾井町1-2"},"geometry":{"type":"Point","coordinates":[139.7379363,35.6799926]}},{"type":"Feature","properties":{"Name":"\nファミリーマート 紀尾井町店\n","Address":"東京都千代田区紀尾井町3-33"},"geometry":{"type":"Point","coordinates":[139.7380955,35.6811802]}},{"type":"Feature","properties":{"Name":"\nファミリーマート ホテルマイステイズ御茶ノ水店\n","Address":"東京都千代田区神田淡路町2-10"},"geometry":{"type":"Point","coordinates":[139.768254,35.697203]}},{"type":"Feature","properties":{"Name":"\nファミリーマート お茶の水明大通り店\n","Address":"東京都千代田区神田駿河台1丁目8-10"},"geometry":{"type":"Point","coordinates":[139.7626707,35.6981531]}},{"type":"Feature","properties":{"Name":"\nファミリーマート 神田神保町一丁目店\n","Address":"東京都千代田区神田神保町1丁目29-3すずらんビル1階"},"geometry":{"type":"Point","coordinates":[139.7595366,35.6949388]}},{"type":"Feature","properties":{"Name":"\nファミリーマート 御茶ノ水駅前店\n","Address":"東京都千代田区神田駿河台2-1"},"geometry":{"type":"Point","coordinates":[139.7652126,35.6994776]}},{"type":"Feature","properties":{"Name":"\nファミリーマート 秋葉原駅中央口前店\n","Address":"東京都千代田区神田佐久間町1丁目13"},"geometry":{"type":"Point","coordinates":[139.7742064,35.6978466]}},{"type":"Feature","properties":{"Name":"\nファミリーマート 有楽町駅前店\n","Address":"東京都千代田区有楽町2丁目8-4"},"geometry":{"type":"Point","coordinates":[139.7629432,35.6743972]}},{"type":"Feature","properties":{"Name":"\nファミリーマート 神田駅東口店\n","Address":"東京都千代田区鍛冶町2-7-1"},"geometry":{"type":"Point","coordinates":[139.7717653,35.692274]}},{"type":"Feature","properties":{"Name":"\nファミリーマート 内神田二丁目店\n","Address":"東京都千代田区内神田2丁目15番11号翔和神田ビル1F"},"geometry":{"type":"Point","coordinates":[139.7681232,35.6920741]}},{"type":"Feature","properties":{"Name":"\nファミリーマート ファミマ霞が関ビルディング店\n","Address":"東京都千代田区霞が関3丁目2-5 霞が関ビルディング"},"geometry":{"type":"Point","coordinates":[139.7472406,35.671183]}},{"type":"Feature","properties":{"Name":"\nファミリーマート 五番町店\n","Address":"東京都千代田区五番町4番1号"},"geometry":{"type":"Point","coordinates":[139.7355457,35.6904257]}},{"type":"Feature","properties":{"Name":"\nファミリーマート 御茶ノ水駅南店\n","Address":"東京都千代田区神田駿河台2丁目2番4号"},"geometry":{"type":"Point","coordinates":[139.7639942,35.6990547]}},{"type":"Feature","properties":{"Name":"\nファミリーマート 三井住友信託銀行本店ビル店\n","Address":"東京都千代田区丸の内1丁目4番1号"},"geometry":{"type":"Point","coordinates":[139.764932,35.68435600000001]}},{"type":"Feature","properties":{"Name":"\nファミリーマート 薬ヒグチ淡路町店\n","Address":"東京都千代田区神田小川町1丁目1-16"},"geometry":{"type":"Point","coordinates":[139.767005,35.6948538]}},{"type":"Feature","properties":{"Name":"\nファミリーマート 水道橋西通り店\n","Address":"東京都千代田区三崎町3丁目7-1 金沢ビル1階"},"geometry":{"type":"Point","coordinates":[139.7521722,35.701331]}},{"type":"Feature","properties":{"Name":"\nファミリーマート OOTEMORI店\n","Address":"東京都千代田区大手町1丁目5番5号"},"geometry":{"type":"Point","coordinates":[139.7653975,35.6855124]}},{"type":"Feature","properties":{"Name":"\nファミリーマート 九段北一丁目店\n","Address":"東京都千代田区九段北1-3-5"},"geometry":{"type":"Point","coordinates":[139.751449,35.6961588]}},{"type":"Feature","properties":{"Name":"\nファミリーマート ファミマサウスタワー店\n","Address":"東京都千代田区丸の内1-9-2グラントウキョウサウスタワ-地下1階"},"geometry":{"type":"Point","coordinates":[139.7673735,35.6786336]}},{"type":"Feature","properties":{"Name":"\nファミリーマート 内神田一丁目店\n","Address":"東京都千代田区内神田1丁目15-2 神田オーシャンビル"},"geometry":{"type":"Point","coordinates":[139.765787,35.6915859]}},{"type":"Feature","properties":{"Name":"\nファミリーマート ファーマライズ薬局末広町店\n","Address":"東京都千代田区外神田6-15-11"},"geometry":{"type":"Point","coordinates":[139.7715715,35.7041628]}},{"type":"Feature","properties":{"Name":"\nファミリーマート 飯田橋三丁目店\n","Address":"東京都千代田区飯田橋3丁目2-2"},"geometry":{"type":"Point","coordinates":[139.7486452,35.7003955]}},{"type":"Feature","properties":{"Name":"\nファミリーマート 東神田二丁目店\n","Address":"東京都千代田区東神田2-10-17"},"geometry":{"type":"Point","coordinates":[139.7808216,35.6955904]}},{"type":"Feature","properties":{"Name":"\nファミリーマート 三崎神社通り店\n","Address":"東京都千代田区三崎町2丁目7-10"},"geometry":{"type":"Point","coordinates":[139.7545765,35.7003279]}},{"type":"Feature","properties":{"Name":"\nファミリーマート ワテラスタワー前店\n","Address":"東京都千代田区神田淡路町2-3"},"geometry":{"type":"Point","coordinates":[139.7674643,35.696598]}},{"type":"Feature","properties":{"Name":"\nファミリーマート テラススクエア店\n","Address":"東京都千代田区神田錦町3丁目22番地"},"geometry":{"type":"Point","coordinates":[139.7601965,35.6934787]}},{"type":"Feature","properties":{"Name":"\nファミリーマート 丸の内オアゾ店\n","Address":"東京都千代田区丸の内1丁目6-4 オアゾショップB1"},"geometry":{"type":"Point","coordinates":[139.7659216,35.6825941]}},{"type":"Feature","properties":{"Name":"\nファミリーマート 神田駿河台三丁目店\n","Address":"東京都千代田区神田駿河台3-5-4-101"},"geometry":{"type":"Point","coordinates":[139.76388,35.695847]}},{"type":"Feature","properties":{"Name":"\nファミリーマート FUNDES神保町店\n","Address":"東京都千代田区神田神保町1丁目8番"},"geometry":{"type":"Point","coordinates":[139.758809,35.6961848]}},{"type":"Feature","properties":{"Name":"\nファミリーマート 神田佐久間町店\n","Address":"東京都千代田区神田佐久間町4-10"},"geometry":{"type":"Point","coordinates":[139.7798156,35.6974579]}},{"type":"Feature","properties":{"Name":"\nファミリーマート ファミマ大手門タワー店\n","Address":"東京都千代田区大手町1丁目1番2号"},"geometry":{"type":"Point","coordinates":[139.7619933,35.6860641]}},{"type":"Feature","properties":{"Name":"\nファミリーマート 飯田橋プラーノ店\n","Address":"東京都千代田区富士見2丁目7-2"},"geometry":{"type":"Point","coordinates":[139.7450049,35.7010261]}},{"type":"Feature","properties":{"Name":"\nファミリーマート ファミマ大手町パークビル店\n","Address":"東京都千代田区大手町1丁目1-1"},"geometry":{"type":"Point","coordinates":[139.7626214,35.6867239]}},{"type":"Feature","properties":{"Name":"\nファミリーマート 飯田橋二丁目店\n","Address":"東京都千代田区飯田橋2-6-6"},"geometry":{"type":"Point","coordinates":[139.7496819,35.69904]}},{"type":"Feature","properties":{"Name":"\nファミリーマート パレスサイドビル店\n","Address":"東京都千代田区一ツ橋1丁目1-1 パレスサイドビル"},"geometry":{"type":"Point","coordinates":[139.757443,35.6909673]}},{"type":"Feature","properties":{"Name":"\nファミリーマート ファミマ!!秋葉原UDX店\n","Address":"東京都千代田区外神田4丁目14-1秋葉原UDX 5F"},"geometry":{"type":"Point","coordinates":[139.772797,35.7005285]}},{"type":"Feature","properties":{"Name":"\nファミリーマート 朝日生命大手町ビル店\n","Address":"東京都千代田区大手町2丁目6-1 朝日生命大手町ビル"},"geometry":{"type":"Point","coordinates":[139.7689189,35.6845034]}},{"type":"Feature","properties":{"Name":"\nファミリーマート 西神田二丁目店\n","Address":"東京都千代田区西神田2丁目8-1"},"geometry":{"type":"Point","coordinates":[139.7561687,35.6990833]}},{"type":"Feature","properties":{"Name":"\nファミリーマート 秋葉原富士ソフトビル店\n","Address":"東京都千代田区神田練塀町3番地富士ソフトビル1F"},"geometry":{"type":"Point","coordinates":[139.7740739,35.7003056]}},{"type":"Feature","properties":{"Name":"\nファミリーマート 外神田一丁目店\n","Address":"東京都千代田区外神田1丁目7番-5"},"geometry":{"type":"Point","coordinates":[139.7702099,35.6995807]}},{"type":"Feature","properties":{"Name":"\nファミリーマート 水道橋駅西口店\n","Address":"東京都千代田区三崎町2-20-4"},"geometry":{"type":"Point","coordinates":[139.7531783,35.7016223]}},{"type":"Feature","properties":{"Name":"\nファミリーマート 丸の内トラストタワー店\n","Address":"東京都千代田区丸の内1ー8-1丸の内トラストタワーN館"},"geometry":{"type":"Point","coordinates":[139.7697606,35.6832253]}},{"type":"Feature","properties":{"Name":"\nファミリーマート 神田駅北店\n","Address":"東京都千代田区内神田3-23-7"},"geometry":{"type":"Point","coordinates":[139.7696987,35.6925296]}},{"type":"Feature","properties":{"Name":"\nファミリーマート 千代田富士見二丁目店\n","Address":"東京都千代田区富士見2丁目2-6"},"geometry":{"type":"Point","coordinates":[139.7452164,35.6992192]}},{"type":"Feature","properties":{"Name":"\nファミリーマート 六番町日テレ前店\n","Address":"東京都千代田区六番町1"},"geometry":{"type":"Point","coordinates":[139.7358477,35.6878731]}},{"type":"Feature","properties":{"Name":"\nファミリーマート 神田和泉町店\n","Address":"東京都千代田区神田和泉町1-4-7"},"geometry":{"type":"Point","coordinates":[139.7768531,35.7003535]}},{"type":"Feature","properties":{"Name":"\nファミリーマート ファミマ御茶ノ水ソラシティ店\n","Address":"東京都千代田区神田駿河台4丁目6番地"},"geometry":{"type":"Point","coordinates":[139.7663189,35.6986943]}},{"type":"Feature","properties":{"Name":"\nファミリーマート ファーストスクエアEAST店\n","Address":"東京都千代田区大手町1丁目5番1号大手町ファーストスクエア1階"},"geometry":{"type":"Point","coordinates":[139.7640245,35.6857768]}},{"type":"Feature","properties":{"Name":"\nファミリーマート PCP丸の内店\n","Address":"東京都千代田区丸の内1丁目11番1号"},"geometry":{"type":"Point","coordinates":[139.7669527,35.6780328]}},{"type":"Feature","properties":{"Name":"\nファミリーマート 市ヶ谷店\n","Address":"東京都千代田区九段北4-2-11"},"geometry":{"type":"Point","coordinates":[139.7372479,35.6916574]}},{"type":"Feature","properties":{"Name":"\nファミリーマート 秋葉原駅前店\n","Address":"東京都千代田区神田佐久間町2-20-2 翔和秋葉原ビル"},"geometry":{"type":"Point","coordinates":[139.7763305,35.6986098]}},{"type":"Feature","properties":{"Name":"\nファミリーマート 専大通り店\n","Address":"東京都千代田区神田神保町3丁目12-3"},"geometry":{"type":"Point","coordinates":[139.7548421,35.6962832]}},{"type":"Feature","properties":{"Name":"\nファミリーマート 神田多町店\n","Address":"東京都千代田区神田多町2-4"},"geometry":{"type":"Point","coordinates":[139.7693612,35.6933236]}},{"type":"Feature","properties":{"Name":"\nファミリーマート 神田西口店\n","Address":"東京都千代田区内神田3-8-8"},"geometry":{"type":"Point","coordinates":[139.7698276,35.6909666]}},{"type":"Feature","properties":{"Name":"\nファミリーマート 神田鍛冶町店\n","Address":"東京都千代田区鍛冶町1丁目7-4"},"geometry":{"type":"Point","coordinates":[139.7710671,35.6904549]}},{"type":"Feature","properties":{"Name":"\nファミリーマート 神田司町店\n","Address":"東京都千代田区神田司町2丁目2-13"},"geometry":{"type":"Point","coordinates":[139.7676681,35.6923377]}},{"type":"Feature","properties":{"Name":"\nファミリーマート 半蔵門駅南店\n","Address":"東京都千代田区隼町2-17"},"geometry":{"type":"Point","coordinates":[139.7418451,35.6833006]}},{"type":"Feature","properties":{"Name":"\nファミリーマート 都営小川町店\n","Address":"東京都千代田区神田小川町1-6都営新宿線小川町駅地下1階"},"geometry":{"type":"Point","coordinates":[139.7668774,35.6951799]}},{"type":"Feature","properties":{"Name":"\nファミリーマート 秋葉原ラジオ会館店\n","Address":"東京都千代田区外神田1丁目15番16号"},"geometry":{"type":"Point","coordinates":[139.7719412,35.6978895]}},{"type":"Feature","properties":{"Name":"\nファミリーマート 内神田鎌倉橋店\n","Address":"東京都千代田区内神田1丁目6番6号"},"geometry":{"type":"Point","coordinates":[139.7662961,35.6899135]}},{"type":"Feature","properties":{"Name":"\nファミリーマート 飯田橋駅前店\n","Address":"東京都千代田区飯田橋4丁目8番13号"},"geometry":{"type":"Point","coordinates":[139.7460564,35.7014315]}},{"type":"Feature","properties":{"Name":"\nファミリーマート 西神田三丁目店\n","Address":"東京都千代田区西神田3丁目5番1号"},"geometry":{"type":"Point","coordinates":[139.7533853,35.6979284]}},{"type":"Feature","properties":{"Name":"\nファミリーマート 神田駅北口店\n","Address":"東京都千代田区内神田3丁目20番7号"},"geometry":{"type":"Point","coordinates":[139.7709254,35.6927319]}},{"type":"Feature","properties":{"Name":"\nファミリーマート 外神田三丁目東店\n","Address":"東京都千代田区外神田3丁目14番地3号"},"geometry":{"type":"Point","coordinates":[139.7711822,35.7012641]}},{"type":"Feature","properties":{"Name":"\nファミリーマート 神田万世橋店\n","Address":"東京都千代田区神田須田町1丁目25番地"},"geometry":{"type":"Point","coordinates":[139.7701555,35.6969308]}},{"type":"Feature","properties":{"Name":"\nファミリーマート 神田須田町二丁目店\n","Address":"東京都千代田区神田須田町2丁目3-1"},"geometry":{"type":"Point","coordinates":[139.7718937,35.6959507]}},{"type":"Feature","properties":{"Name":"\nファミリーマート 永田町店\n","Address":"東京都千代田区永田町2丁目14番2号"},"geometry":{"type":"Point","coordinates":[139.7382184,35.6764465]}},{"type":"Feature","properties":{"Name":"\nファミリーマート 神田三崎町二丁目店\n","Address":"東京都千代田区神田三崎町2丁目18番5号"},"geometry":{"type":"Point","coordinates":[139.7527301,35.7011823]}},{"type":"Feature","properties":{"Name":"\nファミリーマート ファーストスクエア店\n","Address":"東京都千代田区大手町1丁目5-1"},"geometry":{"type":"Point","coordinates":[139.7637435,35.6857035]}},{"type":"Feature","properties":{"Name":"\nファミリーマート 東京国際フォーラム店\n","Address":"東京都千代田区丸の内3丁目5-1"},"geometry":{"type":"Point","coordinates":[139.7635274,35.67675150000001]}},{"type":"Feature","properties":{"Name":"\nファミリーマート 紀尾井町ビル店\n","Address":"東京都千代田区紀尾井町3-12紀尾井町ビル"},"geometry":{"type":"Point","coordinates":[139.7367421,35.68235689999999]}},{"type":"Feature","properties":{"Name":"\nファミリーマート 都道府県会館店\n","Address":"東京都千代田区平河町2丁目6-3"},"geometry":{"type":"Point","coordinates":[139.7389316,35.6791739]}},{"type":"Feature","properties":{"Name":"\nファミリーマート 神田淡路町二丁目店\n","Address":"東京都千代田区神田淡路町2丁目23"},"geometry":{"type":"Point","coordinates":[139.766426,35.6969707]}},{"type":"Feature","properties":{"Name":"\nファミリーマート 三崎町三丁目店\n","Address":"東京都千代田区三崎町3丁目6-9"},"geometry":{"type":"Point","coordinates":[139.7512439,35.701779]}},{"type":"Feature","properties":{"Name":"\nファミリーマート 東京サンケイビル店\n","Address":"東京都千代田区大手町1丁目7-2"},"geometry":{"type":"Point","coordinates":[139.7654385,35.6870165]}},{"type":"Feature","properties":{"Name":"\nファミリーマート 秋葉原昭和通り店\n","Address":"東京都千代田区神田松永町1番地"},"geometry":{"type":"Point","coordinates":[139.7751496,35.6990411]}},{"type":"Feature","properties":{"Name":"\nファミリーマート 水道橋駅東口店\n","Address":"東京都千代田区三崎町2丁目9-18"},"geometry":{"type":"Point","coordinates":[139.7547983,35.7014547]}},{"type":"Feature","properties":{"Name":"\nファミリーマート 麹町一丁目店\n","Address":"東京都千代田区麹町1丁目8-2"},"geometry":{"type":"Point","coordinates":[139.7416989,35.6848943]}},{"type":"Feature","properties":{"Name":"\nファミリーマート 半蔵門駅前店\n","Address":"東京都千代田区一番町25"},"geometry":{"type":"Point","coordinates":[139.7425823,35.6861228]}},{"type":"Feature","properties":{"Name":"\nファミリーマート 麹町駅前店\n","Address":"東京都千代田区麹町4丁目8"},"geometry":{"type":"Point","coordinates":[139.7371767,35.684812]}},{"type":"Feature","properties":{"Name":"\nファミリーマート 外神田四丁目店\n","Address":"東京都千代田区外神田4丁目6-1"},"geometry":{"type":"Point","coordinates":[139.7719237,35.7020482]}},{"type":"Feature","properties":{"Name":"\nファミリーマート 一番町店\n","Address":"東京都千代田区一番町13-3"},"geometry":{"type":"Point","coordinates":[139.7410148,35.6866672]}},{"type":"Feature","properties":{"Name":"\nファミリーマート FAMIMAfactory店\n","Address":"東京都千代田区丸の内1丁目6-4オアゾショップB1"},"geometry":{"type":"Point","coordinates":[139.7659216,35.6825941]}},{"type":"Feature","properties":{"Name":"\nファミリーマート 神田鍛冶町三丁目店\n","Address":"東京都千代田区神田鍛冶町3丁目6-7"},"geometry":{"type":"Point","coordinates":[139.7709042,35.694221]}},{"type":"Feature","properties":{"Name":"\nファミリーマート 東京海上日動ビル店\n","Address":"東京都千代田区丸の内1丁目2-1"},"geometry":{"type":"Point","coordinates":[139.7632777,35.6831182]}},{"type":"Feature","properties":{"Name":"\nファミリーマート 霞ヶ関合同庁舎店\n","Address":"東京都千代田区霞が関2丁目1-2中央合同庁舎B1F"},"geometry":{"type":"Point","coordinates":[139.7513876,35.675644]}},{"type":"Feature","properties":{"Name":"\nファミリーマート 内幸町富国生命ビル店\n","Address":"東京都千代田区内幸町2丁目2-2"},"geometry":{"type":"Point","coordinates":[139.7552287,35.67060010000001]}},{"type":"Feature","properties":{"Name":"\nファミリーマート 九段下駅西店\n","Address":"東京都千代田区九段南2丁目2-8"},"geometry":{"type":"Point","coordinates":[139.7472077,35.6943361]}},{"type":"Feature","properties":{"Name":"\nファミリーマート 神田岩本町一丁目店\n","Address":"東京都千代田区岩本町1丁目3-1"},"geometry":{"type":"Point","coordinates":[139.7751367,35.6916736]}},{"type":"Feature","properties":{"Name":"\nファミリーマート 紀尾井町三番地店\n","Address":"東京都千代田区紀尾井町3-20"},"geometry":{"type":"Point","coordinates":[139.7380588,35.6828398]}},{"type":"Feature","properties":{"Name":"\nファミリーマート 麹町二丁目店\n","Address":"東京都千代田区麹町2丁目5-4"},"geometry":{"type":"Point","coordinates":[139.7404475,35.6834507]}},{"type":"Feature","properties":{"Name":"\nファミリーマート 千代田小川町店\n","Address":"東京都千代田区神田小川町2丁目4-17"},"geometry":{"type":"Point","coordinates":[139.7636048,35.69473139999999]}},{"type":"Feature","properties":{"Name":"\nファミリーマート 麹町三丁目店\n","Address":"東京都千代田区麹町3丁目2"},"geometry":{"type":"Point","coordinates":[139.7388177,35.6843373]}},{"type":"Feature","properties":{"Name":"\nファミリーマート 日比谷中日ビル店\n","Address":"東京都千代田区内幸町2丁目1-4"},"geometry":{"type":"Point","coordinates":[139.7533423,35.6713746]}},{"type":"Feature","properties":{"Name":"\nファミリーマート ガーデンコート店\n","Address":"東京都千代田区紀尾井町4-1"},"geometry":{"type":"Point","coordinates":[139.7340409,35.6809101]}},{"type":"Feature","properties":{"Name":"\nファミリーマート 山王パークタワー店\n","Address":"東京都千代田区永田町2丁目11-1"},"geometry":{"type":"Point","coordinates":[139.7406682,35.673084]}},{"type":"Feature","properties":{"Name":"\nファミリーマート 丸の内新国際ビル店\n","Address":"東京都千代田区丸の内3丁目4-1"},"geometry":{"type":"Point","coordinates":[139.7620932,35.6764213]}},{"type":"Feature","properties":{"Name":"\nファミリーマート 財務省本庁舎店\n","Address":"東京都千代田区霞が関3丁目1-1"},"geometry":{"type":"Point","coordinates":[139.7491458,35.6725795]}},{"type":"Feature","properties":{"Name":"\nファミリーマート TX秋葉原駅店\n","Address":"東京都千代田区神田佐久間町1-6-10"},"geometry":{"type":"Point","coordinates":[139.7736772,35.6978698]}},{"type":"Feature","properties":{"Name":"\nファミリーマート 神田須田町一丁目店\n","Address":"東京都千代田区神田須田町1丁目8-4"},"geometry":{"type":"Point","coordinates":[139.7684364,35.6954922]}},{"type":"Feature","properties":{"Name":"\nファミリーマート 神保町さくら通り店\n","Address":"東京都千代田区神田神保町2丁目13"},"geometry":{"type":"Point","coordinates":[139.7573226,35.6954193]}},{"type":"Feature","properties":{"Name":"\nファミリーマート 東京区政会館店\n","Address":"東京都千代田区飯田橋3丁目5-1"},"geometry":{"type":"Point","coordinates":[139.7473736,35.7014445]}},{"type":"Feature","properties":{"Name":"\nミニストップ 神田錦町3丁目店\n","Address":"東京都千代田区神田錦町3-5-1"},"geometry":{"type":"Point","coordinates":[139.7595163,35.6927066]}},{"type":"Feature","properties":{"Name":"\nミニストップ 神田錦町1丁目店\n","Address":"東京都千代田区神田錦町1-1帝都神田ビル"},"geometry":{"type":"Point","coordinates":[139.7645291,35.6922831]}},{"type":"Feature","properties":{"Name":"\nミニストップ 岩本町2丁目店\n","Address":"東京都千代田区岩本町2-6-10"},"geometry":{"type":"Point","coordinates":[139.7764402,35.6935426]}},{"type":"Feature","properties":{"Name":"\nミニストップ 九段南1丁目店\n","Address":"東京都千代田区九段南1丁目5-5"},"geometry":{"type":"Point","coordinates":[139.7518847,35.6948796]}},{"type":"Feature","properties":{"Name":"\nミニストップ 御茶ノ水駅前店\n","Address":"東京都千代田区神田駿河台2-1-18"},"geometry":{"type":"Point","coordinates":[139.7627827,35.6997402]}},{"type":"Feature","properties":{"Name":"\nミニストップ 飯田橋駅西口店\n","Address":"東京都千代田区富士見2-11-9"},"geometry":{"type":"Point","coordinates":[139.7447953,35.6990753]}},{"type":"Feature","properties":{"Name":"\nミニストップ 九段南4丁目店\n","Address":"東京都千代田区九段南4丁目2-9"},"geometry":{"type":"Point","coordinates":[139.7395095,35.6910928]}},{"type":"Feature","properties":{"Name":"\nミニストップ 神田神保町1丁目店\n","Address":"東京都千代田区神田神保町1丁目2番地5"},"geometry":{"type":"Point","coordinates":[139.760113,35.6963324]}},{"type":"Feature","properties":{"Name":"\nミニストップ 神田鍛冶町店\n","Address":"東京都千代田区鍛冶町1丁目8番8号神田鍛冶町ビル"},"geometry":{"type":"Point","coordinates":[139.7733151,35.6910706]}},{"type":"Feature","properties":{"Name":"\nミニストップ 神田富山町店\n","Address":"東京都千代田区神田富山町5-1"},"geometry":{"type":"Point","coordinates":[139.7732572,35.6938996]}},{"type":"Feature","properties":{"Name":"\nミニストップ 神田美土代町店\n","Address":"東京都千代田区神田美土代町9-1"},"geometry":{"type":"Point","coordinates":[139.7656256,35.693723]}},{"type":"Feature","properties":{"Name":"\nミニストップ cisca岩本町店\n","Address":"東京都千代田区岩本町2丁目4番5号 インスタイルスクエア"},"geometry":{"type":"Point","coordinates":[139.7754718,35.6941589]}},{"type":"Feature","properties":{"Name":"\nミニストップ ciscaグラントウキョウ店\n","Address":"東京都千代田区丸の内1丁目9番1号 グラントウキョウノ-スタワ-17階"},"geometry":{"type":"Point","coordinates":[139.7691718,35.681473]}},{"type":"Feature","properties":{"Name":"\nミニストップ cisca大手町プレイス店\n","Address":"東京都千代田区大手町2-3-1 大手町プレイスウエストタワー14階"},"geometry":{"type":"Point","coordinates":[139.7667951,35.6867396]}},{"type":"Feature","properties":{"Name":"\nミニストップ cisca双日S’cafe\n","Address":"東京都千代田区内幸町2丁目1番1号 飯野ビルディング21階"},"geometry":{"type":"Point","coordinates":[139.7526701,35.6709214]}},{"type":"Feature","properties":{"Name":"\nミニストップ cisca霞が関コモンゲート店\n","Address":"東京都千代田区霞が関3丁目2-1"},"geometry":{"type":"Point","coordinates":[139.7479434,35.6717955]}},{"type":"Feature","properties":{"Name":"\nセブンイレブン 九段南大妻通り店\n","Address":"東京都千代田区九段南3-1-1"},"geometry":{"type":"Point","coordinates":[139.7434825,35.692245]}},{"type":"Feature","properties":{"Name":"\nセブンイレブン 神田小川町2丁目店\n","Address":"東京都千代田区神田小川町2-2-8"},"geometry":{"type":"Point","coordinates":[139.7648763,35.694763]}},{"type":"Feature","properties":{"Name":"\nセブンイレブン 千代田一ツ橋2丁目店\n","Address":"東京都千代田区一ツ橋2-6-2"},"geometry":{"type":"Point","coordinates":[139.7561431,35.6942767]}},{"type":"Feature","properties":{"Name":"\nセブンイレブン 内神田1丁目店\n","Address":"東京都千代田区内神田1-9-13"},"geometry":{"type":"Point","coordinates":[139.7669187,35.6908058]}},{"type":"Feature","properties":{"Name":"\nセブンイレブン 丸の内郵船ビル店\n","Address":"東京都千代田区丸の内2-3-2"},"geometry":{"type":"Point","coordinates":[139.7627158,35.6815166]}},{"type":"Feature","properties":{"Name":"\nセブンイレブン 千代田区麹町4丁目店\n","Address":"東京都千代田区麹町4-5"},"geometry":{"type":"Point","coordinates":[139.7367533,35.683294]}},{"type":"Feature","properties":{"Name":"\nセブンイレブン 7FS内幸町1丁目店\n","Address":"東京都千代田区内幸町1-1-1"},"geometry":{"type":"Point","coordinates":[139.7588216,35.6721986]}},{"type":"Feature","properties":{"Name":"\nセブンイレブン 駿河台三楽病院店\n","Address":"東京都千代田区神田駿河台2丁目5"},"geometry":{"type":"Point","coordinates":[139.7613512,35.6994165]}},{"type":"Feature","properties":{"Name":"\nセブンイレブン 内神田2丁目店\n","Address":"東京都千代田区内神田2丁目2-1"},"geometry":{"type":"Point","coordinates":[139.7674993,35.6897841]}},{"type":"Feature","properties":{"Name":"\nセブンイレブン 特許庁店\n","Address":"東京都千代田区霞ヶ関3-4-3"},"geometry":{"type":"Point","coordinates":[139.7454876,35.6709758]}},{"type":"Feature","properties":{"Name":"\nセブンイレブン 赤坂東急プラザ店\n","Address":"東京都千代田区永田町2-14-3"},"geometry":{"type":"Point","coordinates":[139.7375005,35.6771745]}},{"type":"Feature","properties":{"Name":"\nセブンイレブン 千代田大神宮通り店\n","Address":"東京都千代田区富士見2-4-6"},"geometry":{"type":"Point","coordinates":[139.7461714,35.6998029]}},{"type":"Feature","properties":{"Name":"\nセブンイレブン 神田和泉町店\n","Address":"東京都千代田区神田和泉町1-3-4"},"geometry":{"type":"Point","coordinates":[139.7758749,35.70028]}},{"type":"Feature","properties":{"Name":"\nセブンイレブン 上智大学店\n","Address":"東京都千代田区紀尾井町7-1"},"geometry":{"type":"Point","coordinates":[139.7317462,35.6833031]}},{"type":"Feature","properties":{"Name":"\nセブンイレブン 千代田平河町2丁目店\n","Address":"東京都千代田区平河町2-7-2"},"geometry":{"type":"Point","coordinates":[139.7403868,35.6791053]}},{"type":"Feature","properties":{"Name":"\nセブンイレブン 千代田一番町店\n","Address":"東京都千代田区一番町4-4"},"geometry":{"type":"Point","coordinates":[139.742106,35.6874136]}},{"type":"Feature","properties":{"Name":"\nセブンイレブン 秋葉原昭和通り店\n","Address":"東京都千代田区神田佐久間町2-11"},"geometry":{"type":"Point","coordinates":[139.7763871,35.6978892]}},{"type":"Feature","properties":{"Name":"\nセブンイレブン 神田淡路町ワテラス店\n","Address":"東京都千代田区神田淡路町2丁目105番地"},"geometry":{"type":"Point","coordinates":[139.7679375,35.697582]}},{"type":"Feature","properties":{"Name":"\nセブンイレブン 参議院議員会館店\n","Address":"東京都千代田区永田町2-1-1"},"geometry":{"type":"Point","coordinates":[139.7424872,35.6766181]}},{"type":"Feature","properties":{"Name":"\nセブンイレブン 法政大学市ヶ谷キャンパス店\n","Address":"東京都千代田区富士見2丁目17-1"},"geometry":{"type":"Point","coordinates":[139.7414364,35.69622760000001]}},{"type":"Feature","properties":{"Name":"\nセブンイレブン 千代田岩本町2丁目店\n","Address":"東京都千代田区岩本町2-18-1"},"geometry":{"type":"Point","coordinates":[139.7780745,35.6932598]}},{"type":"Feature","properties":{"Name":"\nセブンイレブン 丸の内永楽ビル店\n","Address":"東京都千代田区丸の内1-4-1"},"geometry":{"type":"Point","coordinates":[139.764932,35.68435600000001]}},{"type":"Feature","properties":{"Name":"\nセブンイレブン AIM三井住友海上駿河台ビル店\n","Address":"東京都千代田区神田駿河台3-9"},"geometry":{"type":"Point","coordinates":[139.764333,35.696691]}},{"type":"Feature","properties":{"Name":"\nセブンイレブン 丸の内パレスビル店\n","Address":"東京都千代田区丸の内1-1-1"},"geometry":{"type":"Point","coordinates":[139.7612211,35.6845001]}},{"type":"Feature","properties":{"Name":"\nセブンイレブン 麹町5丁目店\n","Address":"東京都千代田区麹町5-3-5"},"geometry":{"type":"Point","coordinates":[139.7334227,35.6843676]}},{"type":"Feature","properties":{"Name":"\nセブンイレブン 衆議院第二議員会館店\n","Address":"東京都千代田区永田町2丁目1番2号"},"geometry":{"type":"Point","coordinates":[139.7428706,35.6755049]}},{"type":"Feature","properties":{"Name":"\nセブンイレブン 八重洲地下街南店\n","Address":"東京都中央区八重洲2丁目1番八重洲地下街南1号"},"geometry":{"type":"Point","coordinates":[139.7677527,35.6790857]}},{"type":"Feature","properties":{"Name":"\nセブンイレブン 神田須田町1丁目店\n","Address":"東京都千代田区神田須田町1-2-3"},"geometry":{"type":"Point","coordinates":[139.7677818,35.6950186]}},{"type":"Feature","properties":{"Name":"\nセブンイレブン 外神田4丁目店\n","Address":"東京都千代田区外神田4-7-7"},"geometry":{"type":"Point","coordinates":[139.7722668,35.7027031]}},{"type":"Feature","properties":{"Name":"\nセブンイレブン 神田神保町2丁目店\n","Address":"東京都千代田区神田神保町2-2"},"geometry":{"type":"Point","coordinates":[139.7572421,35.6962498]}},{"type":"Feature","properties":{"Name":"\nセブンイレブン 千代田鍛冶町1丁目店\n","Address":"東京都千代田区鍛冶町1-9-4"},"geometry":{"type":"Point","coordinates":[139.7724568,35.6905898]}},{"type":"Feature","properties":{"Name":"\nセブンイレブン 神田専大通り店\n","Address":"東京都千代田区神田神保町2-38-1"},"geometry":{"type":"Point","coordinates":[139.7548286,35.6975888]}},{"type":"Feature","properties":{"Name":"\nセブンイレブン 丸の内センタービル店\n","Address":"東京都千代田区丸の内1-6-1"},"geometry":{"type":"Point","coordinates":[139.765755,35.68415]}},{"type":"Feature","properties":{"Name":"\nセブンイレブン 神田錦町千代田通り店\n","Address":"東京都千代田区神田錦町3丁目11番地"},"geometry":{"type":"Point","coordinates":[139.7605794,35.6921342]}},{"type":"Feature","properties":{"Name":"\nセブンイレブン 神田錦町3丁目店\n","Address":"東京都千代田区神田錦町3-26"},"geometry":{"type":"Point","coordinates":[139.7594115,35.6933601]}},{"type":"Feature","properties":{"Name":"\nセブンイレブン AIM三井住友海上火災保険新館店\n","Address":"東京都千代田区神田駿河台3-11-1"},"geometry":{"type":"Point","coordinates":[139.7646888,35.6971529]}},{"type":"Feature","properties":{"Name":"\nセブンイレブン 千代田鍛冶町2丁目店\n","Address":"東京都千代田区鍛冶町2丁目9番8号"},"geometry":{"type":"Point","coordinates":[139.7722771,35.6932931]}},{"type":"Feature","properties":{"Name":"\nセブンイレブン 東急キャピトルタワー店\n","Address":"東京都千代田区永田町2-10-3"},"geometry":{"type":"Point","coordinates":[139.7407736,35.6739689]}},{"type":"Feature","properties":{"Name":"\nセブンイレブン 新丸ビル店\n","Address":"東京都千代田区丸の内1-5-1新丸の内ビルB1F"},"geometry":{"type":"Point","coordinates":[139.7642436,35.6826212]}},{"type":"Feature","properties":{"Name":"\nセブンイレブン 千代田三崎町白山通り店\n","Address":"東京都千代田区神田三崎町2-1-18"},"geometry":{"type":"Point","coordinates":[139.755779,35.6999391]}},{"type":"Feature","properties":{"Name":"\nセブンイレブン 神田すずらん通り店\n","Address":"東京都千代田区神田神保町1丁目5"},"geometry":{"type":"Point","coordinates":[139.7590785,35.6954591]}},{"type":"Feature","properties":{"Name":"\nセブンイレブン 秋葉原駅北店\n","Address":"東京都千代田区神田練塀町3-3"},"geometry":{"type":"Point","coordinates":[139.7741362,35.6997757]}},{"type":"Feature","properties":{"Name":"\nセブンイレブン 千代田区麹町3丁目店\n","Address":"東京都千代田区麹町3-5"},"geometry":{"type":"Point","coordinates":[139.7384884,35.6831204]}},{"type":"Feature","properties":{"Name":"\nセブンイレブン 7FS7&i本社ビル店\n","Address":"東京都千代田区二番町8番地8"},"geometry":{"type":"Point","coordinates":[139.734069,35.68575939999999]}},{"type":"Feature","properties":{"Name":"\nセブンイレブン KDDI本社店\n","Address":"東京都千代田区飯田橋3-10-10"},"geometry":{"type":"Point","coordinates":[139.7505414,35.7003223]}},{"type":"Feature","properties":{"Name":"\nセブンイレブン 千代田二番町店\n","Address":"東京都千代田区二番町8-8"},"geometry":{"type":"Point","coordinates":[139.734069,35.68575939999999]}},{"type":"Feature","properties":{"Name":"\nセブンイレブン 丸の内ガーデンタワー店\n","Address":"東京都千代田区丸の内1丁目1番3号"},"geometry":{"type":"Point","coordinates":[139.7622458,35.6844706]}},{"type":"Feature","properties":{"Name":"\nセブンイレブン リクルートサウスタワー店\n","Address":"東京都千代田区丸の内1-9-2グラントウキョウサウ"},"geometry":{"type":"Point","coordinates":[139.7673735,35.6786336]}},{"type":"Feature","properties":{"Name":"\nセブンイレブン 大和ハウス九段ビル店\n","Address":"東京都千代田区飯田橋2-18-2"},"geometry":{"type":"Point","coordinates":[139.7512723,35.6991422]}},{"type":"Feature","properties":{"Name":"\nセブンイレブン 秋葉原センタープレイス店\n","Address":"東京都千代田区神田相生町1番"},"geometry":{"type":"Point","coordinates":[139.7738999,35.6992985]}},{"type":"Feature","properties":{"Name":"\nセブンイレブン 内幸町2丁目店\n","Address":"東京都千代田区内幸町2-1-1"},"geometry":{"type":"Point","coordinates":[139.7525433,35.6708719]}},{"type":"Feature","properties":{"Name":"\nセブンイレブン パレスサイドビル店\n","Address":"東京都千代田区一ツ橋1-1-1"},"geometry":{"type":"Point","coordinates":[139.7574614,35.6909195]}},{"type":"Feature","properties":{"Name":"\nセブンイレブン 読売新聞東京本社ビル店\n","Address":"東京都千代田区大手町1-7-1"},"geometry":{"type":"Point","coordinates":[139.7645138,35.6871851]}},{"type":"Feature","properties":{"Name":"\nセブンイレブン 北の丸スクエア店\n","Address":"東京都千代田区九段北1-13-12"},"geometry":{"type":"Point","coordinates":[139.7506155,35.6957428]}},{"type":"Feature","properties":{"Name":"\nセブンイレブン 有楽町イトシア店\n","Address":"東京都千代田区有楽町2-7-1"},"geometry":{"type":"Point","coordinates":[139.7638503,35.6741124]}},{"type":"Feature","properties":{"Name":"\nセブンイレブン 飯田橋4丁目店\n","Address":"東京都千代田区飯田橋4丁目1-11"},"geometry":{"type":"Point","coordinates":[139.7478636,35.7001409]}},{"type":"Feature","properties":{"Name":"\nセブンイレブン 飯田橋アイガーデンテラス店\n","Address":"東京都千代田区飯田橋3-10-9"},"geometry":{"type":"Point","coordinates":[139.7502182,35.7010449]}},{"type":"Feature","properties":{"Name":"\nセブンイレブン 丸の内東京ビル店\n","Address":"東京都千代田区丸の内2-7-3"},"geometry":{"type":"Point","coordinates":[139.7649357,35.6786068]}},{"type":"Feature","properties":{"Name":"\nセブンイレブン 神田神保町3丁目店\n","Address":"東京都千代田区神田神保町3-2-6"},"geometry":{"type":"Point","coordinates":[139.7539998,35.6960147]}},{"type":"Feature","properties":{"Name":"\nセブンイレブン 日比谷駅前店\n","Address":"東京都千代田区有楽町1-6-3"},"geometry":{"type":"Point","coordinates":[139.760673,35.6739091]}},{"type":"Feature","properties":{"Name":"\nセブンイレブン 麹町駅前店\n","Address":"東京都千代田区二番町4-3"},"geometry":{"type":"Point","coordinates":[139.7364831,35.6863008]}},{"type":"Feature","properties":{"Name":"\nセブンイレブン 中央合同庁舎8号館店\n","Address":"東京都千代田区永田町1-6-1"},"geometry":{"type":"Point","coordinates":[139.7456469,35.6729726]}},{"type":"Feature","properties":{"Name":"\nセブンイレブン 大手町カンファレンスセンター店\n","Address":"東京都千代田区大手町1-3-2"},"geometry":{"type":"Point","coordinates":[139.7635533,35.6886625]}},{"type":"Feature","properties":{"Name":"\nセブンイレブン 有楽町駅前店\n","Address":"東京都千代田区有楽町2-8-2"},"geometry":{"type":"Point","coordinates":[139.7627307,35.6742637]}},{"type":"Feature","properties":{"Name":"\nセブンイレブン 千代田五番町店\n","Address":"東京都千代田区五番町1-9"},"geometry":{"type":"Point","coordinates":[139.7364361,35.6908205]}},{"type":"Feature","properties":{"Name":"\nセブンイレブン 東神田2丁目店\n","Address":"東京都千代田区東神田2丁目5-12"},"geometry":{"type":"Point","coordinates":[139.7796962,35.6957428]}},{"type":"Feature","properties":{"Name":"\nセブンイレブン KDDI本社20階店\n","Address":"東京都千代田区飯田橋3-10-10"},"geometry":{"type":"Point","coordinates":[139.7505414,35.7003223]}},{"type":"Feature","properties":{"Name":"\nセブンイレブン 大手町野村ビル店\n","Address":"東京都千代田区大手町2-1-1"},"geometry":{"type":"Point","coordinates":[139.7661887,35.6851235]}},{"type":"Feature","properties":{"Name":"\nセブンイレブン KDDI大手町ビル店\n","Address":"東京都千代田区大手町1-8-1"},"geometry":{"type":"Point","coordinates":[139.7643942,35.6877789]}},{"type":"Feature","properties":{"Name":"\nセブンイレブン 神田駅北口店\n","Address":"東京都千代田区鍛冶町2-13-11"},"geometry":{"type":"Point","coordinates":[139.7707487,35.6918201]}},{"type":"Feature","properties":{"Name":"\nセブンイレブン 麹町日テレ通り店\n","Address":"東京都千代田区麹町4丁目2番1号"},"geometry":{"type":"Point","coordinates":[139.7374351,35.684173]}},{"type":"Feature","properties":{"Name":"\nセブンイレブン 神田駅西口通り店\n","Address":"東京都千代田区内神田2-9-9"},"geometry":{"type":"Point","coordinates":[139.768409,35.6910661]}},{"type":"Feature","properties":{"Name":"\nセブンイレブン 神田須田町中央通り店\n","Address":"東京都千代田区神田須田町1丁目16番地"},"geometry":{"type":"Point","coordinates":[139.770662,35.695538]}},{"type":"Feature","properties":{"Name":"\nセブンイレブン 7FS中央合同庁舎6号館店\n","Address":"東京都千代田区霞が関1-1-1"},"geometry":{"type":"Point","coordinates":[139.7546813,35.675861]}},{"type":"Feature","properties":{"Name":"\nセブンイレブン 市ヶ谷駅前店\n","Address":"東京都千代田区五番町3番1"},"geometry":{"type":"Point","coordinates":[139.7359361,35.6904246]}},{"type":"Feature","properties":{"Name":"\nセブンイレブン 千代田岩本町1丁目店\n","Address":"東京都千代田区岩本町1-7-1"},"geometry":{"type":"Point","coordinates":[139.7778227,35.6920618]}},{"type":"Feature","properties":{"Name":"\nセブンイレブン 九段北靖国通り店\n","Address":"東京都千代田区九段北4-1-9"},"geometry":{"type":"Point","coordinates":[139.7394571,35.6923566]}},{"type":"Feature","properties":{"Name":"\nセブンイレブン 九段南3丁目店\n","Address":"東京都千代田区九段南3丁目9-12"},"geometry":{"type":"Point","coordinates":[139.74155,35.6924606]}},{"type":"Feature","properties":{"Name":"\nセブンイレブン 千代田平河町1丁目店\n","Address":"東京都千代田区平河町1-8-3"},"geometry":{"type":"Point","coordinates":[139.7416006,35.6827209]}},{"type":"Feature","properties":{"Name":"\nセブンイレブン 明治安田生命本社ビル店\n","Address":"東京都千代田区丸の内2-1-1"},"geometry":{"type":"Point","coordinates":[139.7620664,35.6788422]}},{"type":"Feature","properties":{"Name":"\nセブンイレブン 神田鍛冶町3丁目店\n","Address":"東京都千代田区神田鍛冶町3丁目4"},"geometry":{"type":"Point","coordinates":[139.771076,35.6937535]}},{"type":"Feature","properties":{"Name":"\nセブンイレブン 九段南靖国通り店\n","Address":"東京都千代田区九段南2-3-23"},"geometry":{"type":"Point","coordinates":[139.746256,35.6940505]}},{"type":"Feature","properties":{"Name":"\nセブンイレブン 東京ミッドタウン日比谷ラウンジ店\n","Address":"東京都千代田区有楽町1丁目1-2"},"geometry":{"type":"Point","coordinates":[139.7591755,35.6735772]}},{"type":"Feature","properties":{"Name":"\nセブンイレブン 東京ミッドタウン日比谷店\n","Address":"東京都千代田区有楽町1丁目1-4"},"geometry":{"type":"Point","coordinates":[139.7595213,35.67409019999999]}},{"type":"Feature","properties":{"Name":"\nセブンイレブン 神田小川町3丁目店\n","Address":"東京都千代田区神田小川町3-3"},"geometry":{"type":"Point","coordinates":[139.7616752,35.6949667]}},{"type":"Feature","properties":{"Name":"\nセブンイレブン 中央合同庁舎5号館店\n","Address":"東京都千代田区霞が関1-2-2"},"geometry":{"type":"Point","coordinates":[139.753051,35.6732448]}},{"type":"Feature","properties":{"Name":"\nセブンイレブン 神田万世橋南店\n","Address":"東京都千代田区神田須田町1-9"},"geometry":{"type":"Point","coordinates":[139.7681831,35.69494950000001]}},{"type":"Feature","properties":{"Name":"\nセブンイレブン プルデンシャルタワー店\n","Address":"東京都千代田区永田町2-13-10"},"geometry":{"type":"Point","coordinates":[139.7387059,35.6760427]}},{"type":"Feature","properties":{"Name":"\nセブンイレブン 神田神保町1丁目店\n","Address":"東京都千代田区神田神保町1-58-2"},"geometry":{"type":"Point","coordinates":[139.7570429,35.6985184]}},{"type":"Feature","properties":{"Name":"\nセブンイレブン 神田三崎町2丁目店\n","Address":"東京都千代田区神田三崎町2丁目13番4号"},"geometry":{"type":"Point","coordinates":[139.7532895,35.7002417]}},{"type":"Feature","properties":{"Name":"\nセブンイレブン 日比谷パークフロント店\n","Address":"東京都千代田区内幸町2-1-6"},"geometry":{"type":"Point","coordinates":[139.7536053,35.6708123]}},{"type":"Feature","properties":{"Name":"\nセブンイレブン 神田岩本町店\n","Address":"東京都千代田区神田岩本町2-2"},"geometry":{"type":"Point","coordinates":[139.7752721,35.69268]}},{"type":"Feature","properties":{"Name":"\nセブンイレブン 神田駅南口店\n","Address":"東京都千代田区鍛冶町2丁目1番3号"},"geometry":{"type":"Point","coordinates":[139.7711051,35.6910274]}},{"type":"Feature","properties":{"Name":"\nセブンイレブン NTTCom大手町プレイス店\n","Address":"東京都千代田区大手町2-3-1"},"geometry":{"type":"Point","coordinates":[139.7674372,35.6868588]}},{"type":"Feature","properties":{"Name":"\nセブンイレブン 外神田2丁目妻恋坂店\n","Address":"東京都千代田区外神田2-14-7"},"geometry":{"type":"Point","coordinates":[139.7693125,35.7027495]}},{"type":"Feature","properties":{"Name":"\nセブンイレブン 千代田三番町店\n","Address":"東京都千代田区三番町1"},"geometry":{"type":"Point","coordinates":[139.7452844,35.68972900000001]}},{"type":"Feature","properties":{"Name":"\nセブンイレブン 千代田富士見1丁目店\n","Address":"東京都千代田区富士見1-3-3"},"geometry":{"type":"Point","coordinates":[139.7465076,35.6979565]}},{"type":"Feature","properties":{"Name":"\nセブンイレブン 市ヶ谷駅西店\n","Address":"東京都千代田区五番町2番9"},"geometry":{"type":"Point","coordinates":[139.7345737,35.6904338]}},{"type":"Feature","properties":{"Name":"\nセブンイレブン 神田錦町2丁目店\n","Address":"東京都千代田区神田錦町2丁目7-5"},"geometry":{"type":"Point","coordinates":[139.7632899,35.6914943]}},{"type":"Feature","properties":{"Name":"\nセブンイレブン 住友商事竹橋ビル店\n","Address":"東京都千代田区一ツ橋1-2-2"},"geometry":{"type":"Point","coordinates":[139.7565561,35.69207]}},{"type":"Feature","properties":{"Name":"\nセブンイレブン 九段北4丁目店\n","Address":"東京都千代田区九段北4-2-2"},"geometry":{"type":"Point","coordinates":[139.7387174,35.6920601]}},{"type":"Feature","properties":{"Name":"\nセブンイレブン 神田錦町1丁目店\n","Address":"東京都千代田区神田錦町1-8"},"geometry":{"type":"Point","coordinates":[139.7647417,35.6932531]}},{"type":"Feature","properties":{"Name":"\nデイリーヤマザキ 神田岩本町店\n","Address":"東京都千代田区神田岩本町1"},"geometry":{"type":"Point","coordinates":[139.7789467,35.6931483]}},{"type":"Feature","properties":{"Name":"\nデイリーヤマザキ 岩本町和泉橋店\n","Address":"東京都千代田区岩本町3-10-7"},"geometry":{"type":"Point","coordinates":[139.7759146,35.6963726]}},{"type":"Feature","properties":{"Name":"\nデイリーヤマザキ 岩本町3丁目店\n","Address":"東京都千代田区岩本町3-3-6"},"geometry":{"type":"Point","coordinates":[139.7764301,35.69514360000001]}}]}