{"type":"FeatureCollection","features":[{"type":"Feature","properties":{"Name":"\n生活彩家千駄木店\n","Address":"東京都文京区千駄木2丁目47-2"},"geometry":{"type":"Point","coordinates":[139.7624824,35.72207270000001]}},{"type":"Feature","properties":{"Name":"\nNEWDAYS(ニューデイズ) 御茶ノ水店\n","Address":"東京都文京区湯島1-5 御茶ノ水駅西口改札脇"},"geometry":{"type":"Point","coordinates":[139.7652479,35.6993854]}},{"type":"Feature","properties":{"Name":"\nポプラ 千駄木駅前店\n","Address":"東京都文京区千駄木3-37-20"},"geometry":{"type":"Point","coordinates":[139.7634466,35.72490920000001]}},{"type":"Feature","properties":{"Name":"\n生活彩家 後楽園駅ビル店\n","Address":"東京都文京区春日1-2-3 後楽園駅ビルB1F"},"geometry":{"type":"Point","coordinates":[139.7514699,35.7071455]}},{"type":"Feature","properties":{"Name":"\nファミリーマート 護国寺駅前店\n","Address":"東京都文京区音羽2-10-2"},"geometry":{"type":"Point","coordinates":[139.7274481,35.7199699]}},{"type":"Feature","properties":{"Name":"\n有限会社小沢商店\n","Address":"東京都文京区白山1-7-11"},"geometry":{"type":"Point","coordinates":[139.7521427,35.7162842]}},{"type":"Feature","properties":{"Name":"\nローソン 本郷一丁目店\n","Address":"東京都文京区本郷1-21-7"},"geometry":{"type":"Point","coordinates":[139.7555885,35.704901]}},{"type":"Feature","properties":{"Name":"\nローソン 千駄木店\n","Address":"東京都文京区千駄木3-32-7"},"geometry":{"type":"Point","coordinates":[139.763432,35.7267044]}},{"type":"Feature","properties":{"Name":"\nローソン 本駒込五丁目店\n","Address":"東京都文京区本駒込5-4-7"},"geometry":{"type":"Point","coordinates":[139.7502221,35.7326259]}},{"type":"Feature","properties":{"Name":"\nローソン 東大病院店\n","Address":"東京都文京区本郷7-3-1  東京大学医学部附属病院内"},"geometry":{"type":"Point","coordinates":[139.7655859,35.7117403]}},{"type":"Feature","properties":{"Name":"\nローソン 東京大学龍岡門店\n","Address":"東京都文京区本郷7-3-1"},"geometry":{"type":"Point","coordinates":[139.7621022,35.7141631]}},{"type":"Feature","properties":{"Name":"\nローソン 文京春日一丁目店\n","Address":"東京都文京区春日1-11-13"},"geometry":{"type":"Point","coordinates":[139.7467529,35.7100926]}},{"type":"Feature","properties":{"Name":"\nローソン 東京大学安田講堂店\n","Address":"東京都文京区本郷7-3-1"},"geometry":{"type":"Point","coordinates":[139.7621022,35.7141631]}},{"type":"Feature","properties":{"Name":"\nローソン 御茶ノ水店\n","Address":"東京都文京区湯島1-5-28"},"geometry":{"type":"Point","coordinates":[139.7633452,35.702435]}},{"type":"Feature","properties":{"Name":"\nローソン 湯島駅前店\n","Address":"東京都文京区湯島3-24-13"},"geometry":{"type":"Point","coordinates":[139.769687,35.7061076]}},{"type":"Feature","properties":{"Name":"\nローソン 本郷白山通店\n","Address":"東京都文京区本郷1-33-13"},"geometry":{"type":"Point","coordinates":[139.7545295,35.7065355]}},{"type":"Feature","properties":{"Name":"\nローソン 文京大塚三丁目店\n","Address":"東京都文京区大塚3-9-3"},"geometry":{"type":"Point","coordinates":[139.7322525,35.7212919]}},{"type":"Feature","properties":{"Name":"\nナチュラルローソン 東大赤門前店\n","Address":"東京都文京区本郷5-26-2"},"geometry":{"type":"Point","coordinates":[139.7597018,35.7105341]}},{"type":"Feature","properties":{"Name":"\nローソン 本郷三丁目メトロピア店\n","Address":"東京都文京区本郷2-39-1 丸ノ内線本郷3丁目駅構内"},"geometry":{"type":"Point","coordinates":[139.759816,35.706718]}},{"type":"Feature","properties":{"Name":"\nナチュラルローソン 音羽一丁目店\n","Address":"東京都文京区音羽1-26-1"},"geometry":{"type":"Point","coordinates":[139.7310375,35.7112429]}},{"type":"Feature","properties":{"Name":"\nローソン 小石川一丁目店\n","Address":"東京都文京区小石川1-14"},"geometry":{"type":"Point","coordinates":[139.7513925,35.71258170000001]}},{"type":"Feature","properties":{"Name":"\nローソン 小石川五丁目店\n","Address":"東京都文京区小石川5-6-10"},"geometry":{"type":"Point","coordinates":[139.7372161,35.7181664]}},{"type":"Feature","properties":{"Name":"\nローソン 茗荷谷駅前店\n","Address":"東京都文京区大塚1-4-15"},"geometry":{"type":"Point","coordinates":[139.7360013,35.7176378]}},{"type":"Feature","properties":{"Name":"\nローソン 都営水道橋駅前店\n","Address":"東京都文京区本郷1-20-3"},"geometry":{"type":"Point","coordinates":[139.7551795,35.7044567]}},{"type":"Feature","properties":{"Name":"\nローソン 東京ドームシティ店\n","Address":"東京都文京区後楽1-3-61"},"geometry":{"type":"Point","coordinates":[139.7521112,35.7053406]}},{"type":"Feature","properties":{"Name":"\nローソン 本郷一丁目春日通店\n","Address":"東京都文京区本郷1-29-10"},"geometry":{"type":"Point","coordinates":[139.755833,35.707112]}},{"type":"Feature","properties":{"Name":"\nローソン 文京白山五丁目店\n","Address":"東京都文京区白山5-7-12"},"geometry":{"type":"Point","coordinates":[139.748205,35.7227604]}},{"type":"Feature","properties":{"Name":"\nナチュラルローソン 都立駒込病院店\n","Address":"東京都文京区本駒込3-18-22"},"geometry":{"type":"Point","coordinates":[139.7563929,35.7298427]}},{"type":"Feature","properties":{"Name":"\nローソン 文京本郷七丁目店\n","Address":"東京都文京区本郷7-2-2"},"geometry":{"type":"Point","coordinates":[139.7624676,35.7076625]}},{"type":"Feature","properties":{"Name":"\nローソン 御茶ノ水MKビル店\n","Address":"東京都文京区湯島1-8-2"},"geometry":{"type":"Point","coordinates":[139.7654241,35.7022142]}},{"type":"Feature","properties":{"Name":"\nローソンストア100 LS白山駅前店\n","Address":"東京都文京区白山5-36-8武蔵野ビル"},"geometry":{"type":"Point","coordinates":[139.751692,35.720822]}},{"type":"Feature","properties":{"Name":"\nローソンストア100 LS本駒込店\n","Address":"東京都文京区本駒込4-46-4ルピナス本駒込"},"geometry":{"type":"Point","coordinates":[139.7555049,35.7338409]}},{"type":"Feature","properties":{"Name":"\nローソンストア100 LS本郷郵便局店\n","Address":"東京都文京区本郷6-1-15"},"geometry":{"type":"Point","coordinates":[139.759083,35.7122082]}},{"type":"Feature","properties":{"Name":"\nローソンストア100 LS文京千石四丁目店\n","Address":"東京都文京区千石4-45-17"},"geometry":{"type":"Point","coordinates":[139.7427878,35.7293382]}},{"type":"Feature","properties":{"Name":"\nローソンストア100 東京大学工学部三号館店\n","Address":"東京都文京区本郷7-3-1"},"geometry":{"type":"Point","coordinates":[139.7621022,35.7141631]}},{"type":"Feature","properties":{"Name":"\nローソン メトロス江戸川橋店\n","Address":"東京都文京区関口1-19-6"},"geometry":{"type":"Point","coordinates":[139.7339999,35.7091251]}},{"type":"Feature","properties":{"Name":"\nローソン 春日駅前店\n","Address":"東京都文京区小石川1-9-1"},"geometry":{"type":"Point","coordinates":[139.7524324,35.7113278]}},{"type":"Feature","properties":{"Name":"\nローソン 順天堂医院B棟店\n","Address":"東京都文京区本郷3-1-3"},"geometry":{"type":"Point","coordinates":[139.7626057,35.7024045]}},{"type":"Feature","properties":{"Name":"\nナチュラルローソン 順天堂医院C棟店\n","Address":"東京都文京区本郷3-1-3"},"geometry":{"type":"Point","coordinates":[139.7626057,35.7024045]}},{"type":"Feature","properties":{"Name":"\nローソン メトロス後楽園店\n","Address":"東京都文京区春日1-2-3"},"geometry":{"type":"Point","coordinates":[139.7514029,35.7072763]}},{"type":"Feature","properties":{"Name":"\nローソン 文京サッカー通り店\n","Address":"東京都文京区湯島2-5-10"},"geometry":{"type":"Point","coordinates":[139.7643527,35.7041731]}},{"type":"Feature","properties":{"Name":"\nローソン 茗荷谷春日通店\n","Address":"東京都文京区小石川5-5-7"},"geometry":{"type":"Point","coordinates":[139.7367969,35.7180506]}},{"type":"Feature","properties":{"Name":"\nローソン メトロス茗荷谷店\n","Address":"東京都文京区小日向4-6-15"},"geometry":{"type":"Point","coordinates":[139.7367463,35.717332]}},{"type":"Feature","properties":{"Name":"\nローソン 江戸川橋駅前店\n","Address":"東京都文京区関口1-21-19"},"geometry":{"type":"Point","coordinates":[139.7330256,35.709512]}},{"type":"Feature","properties":{"Name":"\nローソン 文京音羽一丁目店\n","Address":"東京都文京区音羽1-20-2"},"geometry":{"type":"Point","coordinates":[139.7292045,35.715105]}},{"type":"Feature","properties":{"Name":"\nローソン 千駄木不忍通店\n","Address":"東京都文京区千駄木3-43-17"},"geometry":{"type":"Point","coordinates":[139.7638188,35.728163]}},{"type":"Feature","properties":{"Name":"\nローソン 本郷四丁目白山通店\n","Address":"東京都文京区本郷4-23-14"},"geometry":{"type":"Point","coordinates":[139.7535431,35.7102473]}},{"type":"Feature","properties":{"Name":"\nファミリーマート 渋木向丘店\n","Address":"東京都文京区向丘1-13-3"},"geometry":{"type":"Point","coordinates":[139.7560524,35.7201717]}},{"type":"Feature","properties":{"Name":"\nファミリーマート 小石川五丁目店\n","Address":"東京都文京区小石川5-3-8"},"geometry":{"type":"Point","coordinates":[139.7389375,35.7166174]}},{"type":"Feature","properties":{"Name":"\nファミリーマート 伝通院前店\n","Address":"東京都文京区春日2-24-15"},"geometry":{"type":"Point","coordinates":[139.7460105,35.710396]}},{"type":"Feature","properties":{"Name":"\nファミリーマート お茶の水店\n","Address":"東京都文京区湯島1-3-7"},"geometry":{"type":"Point","coordinates":[139.7663621,35.70162090000001]}},{"type":"Feature","properties":{"Name":"\nファミリーマート 小石川ゆたて坂店\n","Address":"東京都文京区小石川5-31-4"},"geometry":{"type":"Point","coordinates":[139.7399469,35.72036629999999]}},{"type":"Feature","properties":{"Name":"\nファミリーマート 後楽店\n","Address":"東京都文京区後楽2-3-25金子ビル"},"geometry":{"type":"Point","coordinates":[139.7461427,35.704685]}},{"type":"Feature","properties":{"Name":"\nファミリーマート 江戸川橋駅西店\n","Address":"東京都文京区関口1-44-10"},"geometry":{"type":"Point","coordinates":[139.7293398,35.7095553]}},{"type":"Feature","properties":{"Name":"\nファミリーマート 本郷三丁目店\n","Address":"東京都文京区本郷3-34-5三原堂ビル"},"geometry":{"type":"Point","coordinates":[139.7608753,35.70740380000001]}},{"type":"Feature","properties":{"Name":"\nファミリーマート 音羽一丁目店\n","Address":"東京都文京区音羽1-20-11"},"geometry":{"type":"Point","coordinates":[139.728793,35.7158299]}},{"type":"Feature","properties":{"Name":"\nファミリーマート 湯島三丁目店\n","Address":"東京都文京区湯島3-24-11"},"geometry":{"type":"Point","coordinates":[139.7697191,35.7063063]}},{"type":"Feature","properties":{"Name":"\nファミリーマート 文京白山駅前店\n","Address":"東京都文京区白山1丁目33-8"},"geometry":{"type":"Point","coordinates":[139.7521849,35.72038070000001]}},{"type":"Feature","properties":{"Name":"\nファミリーマート 小石川一丁目店\n","Address":"東京都文京区小石川1丁目3-11イートピア小石川梅津ビル1階"},"geometry":{"type":"Point","coordinates":[139.7520713,35.7095196]}},{"type":"Feature","properties":{"Name":"\nファミリーマート 東大正門前店\n","Address":"東京都文京区本郷6-2-9"},"geometry":{"type":"Point","coordinates":[139.7590497,35.7127157]}},{"type":"Feature","properties":{"Name":"\nファミリーマート 大塚三丁目店\n","Address":"東京都文京区大塚3丁目38-6"},"geometry":{"type":"Point","coordinates":[139.7385065,35.7221359]}},{"type":"Feature","properties":{"Name":"\nファミリーマート 文京向丘二丁目店\n","Address":"東京都文京区向丘2丁目10番14号"},"geometry":{"type":"Point","coordinates":[139.7583953,35.7200276]}},{"type":"Feature","properties":{"Name":"\nファミリーマート 文京小石川二丁目店\n","Address":"東京都文京区小石川2丁目1-13"},"geometry":{"type":"Point","coordinates":[139.7515132,35.7088625]}},{"type":"Feature","properties":{"Name":"\nファミリーマート 関口一丁目店\n","Address":"東京都文京区関口1-19-6"},"geometry":{"type":"Point","coordinates":[139.7339999,35.7091251]}},{"type":"Feature","properties":{"Name":"\nファミリーマート 文京本郷店\n","Address":"東京都文京区本郷3丁目43番8号湯島武蔵野マンション"},"geometry":{"type":"Point","coordinates":[139.7640538,35.7066519]}},{"type":"Feature","properties":{"Name":"\nファミリーマート 千駄木五丁目店\n","Address":"東京都文京区千駄木5丁目42-2"},"geometry":{"type":"Point","coordinates":[139.7572015,35.7289686]}},{"type":"Feature","properties":{"Name":"\nファミリーマート 本駒込二丁目店\n","Address":"東京都文京区本駒込2丁目10-1"},"geometry":{"type":"Point","coordinates":[139.7463043,35.7273028]}},{"type":"Feature","properties":{"Name":"\nファミリーマート 向丘二丁目北店\n","Address":"東京都文京区向丘2丁目29番11号"},"geometry":{"type":"Point","coordinates":[139.7551302,35.7234266]}},{"type":"Feature","properties":{"Name":"\nファミリーマート 文京音羽一丁目店\n","Address":"東京都文京区音羽1丁目1-1"},"geometry":{"type":"Point","coordinates":[139.7316226,35.7111775]}},{"type":"Feature","properties":{"Name":"\nファミリーマート 大塚一丁目店\n","Address":"東京都文京区大塚1-5-18"},"geometry":{"type":"Point","coordinates":[139.734788,35.7187902]}},{"type":"Feature","properties":{"Name":"\nファミリーマート 本駒込六丁目店\n","Address":"東京都文京区本駒込6-4-25"},"geometry":{"type":"Point","coordinates":[139.7428835,35.7300449]}},{"type":"Feature","properties":{"Name":"\nファミリーマート 清水坂下店\n","Address":"東京都文京区湯島3丁目1番9号"},"geometry":{"type":"Point","coordinates":[139.7668745,35.7030824]}},{"type":"Feature","properties":{"Name":"\nファミリーマート 文京湯島春日通り店\n","Address":"東京都文京区湯島3丁目42番12号"},"geometry":{"type":"Point","coordinates":[139.7714384,35.708441]}},{"type":"Feature","properties":{"Name":"\nファミリーマート 音羽二丁目店\n","Address":"東京都文京区音羽2-2"},"geometry":{"type":"Point","coordinates":[139.7280015,35.7184636]}},{"type":"Feature","properties":{"Name":"\nファミリーマート 本駒込一丁目店\n","Address":"東京都文京区本駒込1丁目4-4 旭商店白山ビル"},"geometry":{"type":"Point","coordinates":[139.7517291,35.7240214]}},{"type":"Feature","properties":{"Name":"\nファミリーマート 文京後楽二丁目店\n","Address":"東京都文京区後楽2丁目5番1号"},"geometry":{"type":"Point","coordinates":[139.7459941,35.70528280000001]}},{"type":"Feature","properties":{"Name":"\nファミリーマート 本郷五丁目店\n","Address":"東京都文京区本郷5丁目1ー16"},"geometry":{"type":"Point","coordinates":[139.7602312,35.708377]}},{"type":"Feature","properties":{"Name":"\nファミリーマート 茗荷谷店\n","Address":"東京都文京区小日向4-5-10"},"geometry":{"type":"Point","coordinates":[139.7380521,35.71648250000001]}},{"type":"Feature","properties":{"Name":"\nファミリーマート 湯島一丁目店\n","Address":"東京都文京区湯島1丁目6番3号"},"geometry":{"type":"Point","coordinates":[139.7640261,35.7030042]}},{"type":"Feature","properties":{"Name":"\nファミリーマート 六義園店\n","Address":"東京都文京区本駒込6-15-20"},"geometry":{"type":"Point","coordinates":[139.7487303,35.7326689]}},{"type":"Feature","properties":{"Name":"\nファミリーマート 文京小石川一丁目店\n","Address":"東京都文京区小石川1丁目13番11号"},"geometry":{"type":"Point","coordinates":[139.7521259,35.7128701]}},{"type":"Feature","properties":{"Name":"\nファミリーマート 白山五丁目店\n","Address":"東京都文京区白山5丁目33番13号"},"geometry":{"type":"Point","coordinates":[139.7524082,35.7226156]}},{"type":"Feature","properties":{"Name":"\nファミリーマート 文京シビックセンター店\n","Address":"東京都文京区春日1丁目16-21文京シビックセンター1F"},"geometry":{"type":"Point","coordinates":[139.752591,35.7079305]}},{"type":"Feature","properties":{"Name":"\nファミリーマート 文京目白台三丁目店\n","Address":"東京都文京区目白台3-28-6"},"geometry":{"type":"Point","coordinates":[139.7248805,35.71808499999999]}},{"type":"Feature","properties":{"Name":"\nファミリーマート 湯島駅前店\n","Address":"東京都文京区湯島3丁目35-11"},"geometry":{"type":"Point","coordinates":[139.7706516,35.7080127]}},{"type":"Feature","properties":{"Name":"\nファミリーマート 本駒込駅前店\n","Address":"東京都文京区本駒込3丁目1-6"},"geometry":{"type":"Point","coordinates":[139.7538005,35.7255023]}},{"type":"Feature","properties":{"Name":"\nミニストップ 新大塚店\n","Address":"東京都文京区大塚6-10-6"},"geometry":{"type":"Point","coordinates":[139.7267024,35.7261126]}},{"type":"Feature","properties":{"Name":"\nミニストップ 江戸川橋店\n","Address":"東京都文京区関口1-13-12"},"geometry":{"type":"Point","coordinates":[139.7329363,35.7088839]}},{"type":"Feature","properties":{"Name":"\nミニストップ 茗荷谷店\n","Address":"東京都文京区春日2丁目10番16号"},"geometry":{"type":"Point","coordinates":[139.7420344,35.7130418]}},{"type":"Feature","properties":{"Name":"\nミニストップ 文京後楽店\n","Address":"東京都文京区後楽2-23-7"},"geometry":{"type":"Point","coordinates":[139.743752,35.7076404]}},{"type":"Feature","properties":{"Name":"\nセブンイレブン 文京神田明神下店\n","Address":"東京都文京区湯島1ー3ー4"},"geometry":{"type":"Point","coordinates":[139.7665366,35.7014498]}},{"type":"Feature","properties":{"Name":"\nセブンイレブン 文京上野広小路西店\n","Address":"東京都文京区湯島3-41-2"},"geometry":{"type":"Point","coordinates":[139.7722271,35.7082466]}},{"type":"Feature","properties":{"Name":"\nセブンイレブン 文京千駄木1丁目店\n","Address":"東京都文京区千駄木1-23-3"},"geometry":{"type":"Point","coordinates":[139.7604865,35.7248474]}},{"type":"Feature","properties":{"Name":"\nセブンイレブン 文京水道1丁目店\n","Address":"東京都文京区水道1-6-7"},"geometry":{"type":"Point","coordinates":[139.7402939,35.7105085]}},{"type":"Feature","properties":{"Name":"\nセブンイレブン 東京ドームシティミーツポート店\n","Address":"東京都文京区後楽1-3-61"},"geometry":{"type":"Point","coordinates":[139.7521112,35.7053406]}},{"type":"Feature","properties":{"Name":"\nセブンイレブン 文京本郷4丁目店\n","Address":"東京都文京区本郷4-3-4"},"geometry":{"type":"Point","coordinates":[139.7588524,35.7075893]}},{"type":"Feature","properties":{"Name":"\nセブンイレブン 文京本駒込2の南店\n","Address":"東京都文京区本駒込2-11-7"},"geometry":{"type":"Point","coordinates":[139.7467417,35.7282328]}},{"type":"Feature","properties":{"Name":"\nセブンイレブン 江戸川橋店\n","Address":"東京都文京区関口1ー10ー11"},"geometry":{"type":"Point","coordinates":[139.7318078,35.7094315]}},{"type":"Feature","properties":{"Name":"\nセブンイレブン 文京千石1丁目店\n","Address":"東京都文京区千石1-18-13"},"geometry":{"type":"Point","coordinates":[139.7425848,35.7272319]}},{"type":"Feature","properties":{"Name":"\nセブンイレブン 文京関口1丁目店\n","Address":"東京都文京区関口1-29-3"},"geometry":{"type":"Point","coordinates":[139.7244091,35.7104675]}},{"type":"Feature","properties":{"Name":"\nセブンイレブン 文京大塚4丁目店\n","Address":"東京都文京区大塚4-41-12"},"geometry":{"type":"Point","coordinates":[139.7339189,35.7219238]}},{"type":"Feature","properties":{"Name":"\nセブンイレブン 文京向丘1丁目店\n","Address":"東京都文京区向丘1-1-14"},"geometry":{"type":"Point","coordinates":[139.7582699,35.7166224]}},{"type":"Feature","properties":{"Name":"\nセブンイレブン 文京動坂上店\n","Address":"東京都文京区本駒込3-10-21"},"geometry":{"type":"Point","coordinates":[139.7562725,35.7278049]}},{"type":"Feature","properties":{"Name":"\nセブンイレブン 文京小石川4丁目店\n","Address":"東京都文京区小石川4ー1ー9"},"geometry":{"type":"Point","coordinates":[139.7450463,35.71143420000001]}},{"type":"Feature","properties":{"Name":"\nセブンイレブン 文京小石川1丁目店\n","Address":"東京都文京区小石川1ー10-5"},"geometry":{"type":"Point","coordinates":[139.751614,35.7119719]}},{"type":"Feature","properties":{"Name":"\nセブンイレブン 文京目白台2丁目店\n","Address":"東京都文京区目白台2ー14ー15"},"geometry":{"type":"Point","coordinates":[139.7225113,35.7186323]}},{"type":"Feature","properties":{"Name":"\nセブンイレブン 文京本駒込2丁目店\n","Address":"東京都文京区本駒込2ー19ー4ー102"},"geometry":{"type":"Point","coordinates":[139.7515707,35.7289804]}},{"type":"Feature","properties":{"Name":"\nセブンイレブン 文京湯島2丁目店\n","Address":"東京都文京区湯島2-8-9"},"geometry":{"type":"Point","coordinates":[139.7667395,35.7038678]}},{"type":"Feature","properties":{"Name":"\nセブンイレブン 文京本郷1丁目店\n","Address":"東京都文京区本郷1丁目22番6号"},"geometry":{"type":"Point","coordinates":[139.7551151,35.7050675]}},{"type":"Feature","properties":{"Name":"\nセブンイレブン 文京白山駅前店\n","Address":"東京都文京区白山5ー36ー11"},"geometry":{"type":"Point","coordinates":[139.7516221,35.7203651]}},{"type":"Feature","properties":{"Name":"\nセブンイレブン 文京グリーンコート店\n","Address":"東京都文京区本駒込2-28-10"},"geometry":{"type":"Point","coordinates":[139.7480065,35.7302231]}},{"type":"Feature","properties":{"Name":"\nセブンイレブン 文京本駒込4丁目店\n","Address":"東京都文京区本駒込4-40-3"},"geometry":{"type":"Point","coordinates":[139.7579395,35.732234]}},{"type":"Feature","properties":{"Name":"\nセブンイレブン 文京千石駅前店\n","Address":"東京都文京区千石1-27-12"},"geometry":{"type":"Point","coordinates":[139.744247,35.7279844]}},{"type":"Feature","properties":{"Name":"\nセブンイレブン 文京本駒込1丁目店\n","Address":"東京都文京区本駒込1ー11ー3"},"geometry":{"type":"Point","coordinates":[139.750386,35.7247979]}},{"type":"Feature","properties":{"Name":"\nセブンイレブン 本郷店\n","Address":"東京都文京区本郷3-23-1"},"geometry":{"type":"Point","coordinates":[139.7643178,35.7055742]}},{"type":"Feature","properties":{"Name":"\nセブンイレブン 文京音羽1丁目店\n","Address":"東京都文京区音羽1-17-11"},"geometry":{"type":"Point","coordinates":[139.7282748,35.7168576]}},{"type":"Feature","properties":{"Name":"\nセブンイレブン 文京本郷3丁目店\n","Address":"東京都文京区本郷3-5-5"},"geometry":{"type":"Point","coordinates":[139.7621939,35.7043039]}},{"type":"Feature","properties":{"Name":"\nセブンイレブン 東洋大学白山キャンパス店\n","Address":"東京都文京区白山5-28-20"},"geometry":{"type":"Point","coordinates":[139.7505705,35.7228329]}},{"type":"Feature","properties":{"Name":"\nセブンイレブン 根津駅前店\n","Address":"東京都文京区根津1-16-13"},"geometry":{"type":"Point","coordinates":[139.7644209,35.7182699]}},{"type":"Feature","properties":{"Name":"\nセブンイレブン 小石川白山通り店\n","Address":"東京都文京区小石川1-28-1"},"geometry":{"type":"Point","coordinates":[139.7515865,35.7151362]}},{"type":"Feature","properties":{"Name":"\nセブンイレブン 本郷三丁目駅前店\n","Address":"東京都文京区本郷3-36-10"},"geometry":{"type":"Point","coordinates":[139.7616839,35.7073964]}},{"type":"Feature","properties":{"Name":"\nセブンイレブン 文京千駄木3丁目店\n","Address":"東京都文京区千駄木3-41-14"},"geometry":{"type":"Point","coordinates":[139.7644692,35.7269158]}},{"type":"Feature","properties":{"Name":"\nセブンイレブン 飯田橋駅北店\n","Address":"東京都文京区後楽2-3-13"},"geometry":{"type":"Point","coordinates":[139.7447746,35.7047305]}},{"type":"Feature","properties":{"Name":"\nセブンイレブン 文京春日1丁目店\n","Address":"東京都文京区春日1-7-3"},"geometry":{"type":"Point","coordinates":[139.7458695,35.7075763]}},{"type":"Feature","properties":{"Name":"\nセブンイレブン 凸版印刷小石川厚生棟店\n","Address":"東京都文京区水道1-3-3"},"geometry":{"type":"Point","coordinates":[139.7416041,35.7090962]}},{"type":"Feature","properties":{"Name":"\nセブンイレブン 文京西片1丁目店\n","Address":"東京都文京区西片1丁目15-4"},"geometry":{"type":"Point","coordinates":[139.7536903,35.7115062]}},{"type":"Feature","properties":{"Name":"\nセブンイレブン 文京植物園前店\n","Address":"東京都文京区白山2丁目14-23"},"geometry":{"type":"Point","coordinates":[139.74575,35.7170042]}},{"type":"Feature","properties":{"Name":"\nセブンイレブン AIM日本医科大学付属病院店\n","Address":"東京都文京区千駄木1-1-5"},"geometry":{"type":"Point","coordinates":[139.7589692,35.7211431]}},{"type":"Feature","properties":{"Name":"\nセブンイレブン 文京千駄木店\n","Address":"東京都文京区千駄木2-13-1"},"geometry":{"type":"Point","coordinates":[139.7623192,35.7231987]}},{"type":"Feature","properties":{"Name":"\nセブンイレブン 文京真砂坂上店\n","Address":"東京都文京区本郷4丁目14-10"},"geometry":{"type":"Point","coordinates":[139.7558744,35.7078794]}},{"type":"Feature","properties":{"Name":"\nセブンイレブン 文京向丘2丁目店\n","Address":"東京都文京区向丘2-8-7"},"geometry":{"type":"Point","coordinates":[139.7571844,35.7194823]}},{"type":"Feature","properties":{"Name":"\nセブンイレブン 文京湯島3丁目店\n","Address":"東京都文京区湯島3-14-9"},"geometry":{"type":"Point","coordinates":[139.769527,35.705034]}},{"type":"Feature","properties":{"Name":"\nセブンイレブン 東京医科歯科大病院店\n","Address":"東京都文京区湯島1-5-45"},"geometry":{"type":"Point","coordinates":[139.7642086,35.7016964]}},{"type":"Feature","properties":{"Name":"\nニューヤマザキデイリーストア 根津北嶋店\n","Address":"東京都文京区根津2-8-1"},"geometry":{"type":"Point","coordinates":[139.7666146,35.7171407]}},{"type":"Feature","properties":{"Name":"\nニューヤマザキデイリーストア 小日向店\n","Address":"東京都文京区水道2-12-17"},"geometry":{"type":"Point","coordinates":[139.7350081,35.7097668]}},{"type":"Feature","properties":{"Name":"\nデイリーヤマザキ 茗荷谷店\n","Address":"東京都文京区小日向4-7-10"},"geometry":{"type":"Point","coordinates":[139.7366297,35.7169945]}}]}