{"type":"FeatureCollection","features":[{"type":"Feature","properties":{"Name":"\n(有)モンマート升本\n","Address":"東京都中野区野方1丁目22-6"},"geometry":{"type":"Point","coordinates":[139.6564803,35.7122093]}},{"type":"Feature","properties":{"Name":"\nNEWDAYS(ニューデイズ) 中野北口店\n","Address":"東京都中野区中野5 中野駅北口改札外"},"geometry":{"type":"Point","coordinates":[139.6657777,35.7057972]}},{"type":"Feature","properties":{"Name":"\nNEWDAYS(ニューデイズ) 中野南口店\n","Address":"東京都中野区中野5-31-1 中野駅南口改札外"},"geometry":{"type":"Point","coordinates":[139.6659861,35.7053867]}},{"type":"Feature","properties":{"Name":"\nNEWDAYSMINI(ニューデイズミニ) 中野8号店\n","Address":"東京都中野区中野5 中野駅第3ホーム(5・6番線ホーム)内"},"geometry":{"type":"Point","coordinates":[139.6663798,35.7056392]}},{"type":"Feature","properties":{"Name":"\nデイリーヤマザキ 中野中央店\n","Address":"東京都中野区本町3-32-22"},"geometry":{"type":"Point","coordinates":[139.6755915,35.6974907]}},{"type":"Feature","properties":{"Name":"\nマリノ\n","Address":"東京都中野区中央5-15-4"},"geometry":{"type":"Point","coordinates":[139.6637636,35.6976045]}},{"type":"Feature","properties":{"Name":"\nファミリーマート 中野弥生町一丁目店\n","Address":"東京都中野区弥生町1-38-5"},"geometry":{"type":"Point","coordinates":[139.677218,35.6876242]}},{"type":"Feature","properties":{"Name":"\nローソン 江古田一丁目店\n","Address":"東京都中野区江古田1-40-22"},"geometry":{"type":"Point","coordinates":[139.6700845,35.7241553]}},{"type":"Feature","properties":{"Name":"\nローソン 中野南台五丁目店\n","Address":"東京都中野区南台5-25-6"},"geometry":{"type":"Point","coordinates":[139.6610456,35.6841598]}},{"type":"Feature","properties":{"Name":"\nローソン 中野本町一丁目店\n","Address":"東京都中野区本町1-25-10"},"geometry":{"type":"Point","coordinates":[139.6829082,35.6955892]}},{"type":"Feature","properties":{"Name":"\nナチュラルローソン 東京警察病院店\n","Address":"東京都中野区中野4-22-1"},"geometry":{"type":"Point","coordinates":[139.6593592,35.709121]}},{"type":"Feature","properties":{"Name":"\nローソン H中野二丁目店\n","Address":"東京都中野区中野2-27-15"},"geometry":{"type":"Point","coordinates":[139.6660607,35.7039683]}},{"type":"Feature","properties":{"Name":"\nローソン H中野本町一丁目東店\n","Address":"東京都中野区本町1-13-18"},"geometry":{"type":"Point","coordinates":[139.6863335,35.6961715]}},{"type":"Feature","properties":{"Name":"\nローソン 中野セントラルパークイ-スト店\n","Address":"東京都中野区中野4-10-1"},"geometry":{"type":"Point","coordinates":[139.6629718,35.7077587]}},{"type":"Feature","properties":{"Name":"\nローソン 新中野駅前店\n","Address":"東京都中野区中央4-1-3"},"geometry":{"type":"Point","coordinates":[139.6704601,35.6977118]}},{"type":"Feature","properties":{"Name":"\nローソン 中野本町新橋通り店\n","Address":"東京都中野区本町3-20-13"},"geometry":{"type":"Point","coordinates":[139.6744088,35.6957235]}},{"type":"Feature","properties":{"Name":"\nローソン H中野サンブライト店\n","Address":"東京都中野区本町2-46-1"},"geometry":{"type":"Point","coordinates":[139.6821496,35.6966919]}},{"type":"Feature","properties":{"Name":"\nローソン H中野セントラルパークサウス店\n","Address":"東京都中野区中野4-10-2"},"geometry":{"type":"Point","coordinates":[139.6616947,35.7070058]}},{"type":"Feature","properties":{"Name":"\nローソン 中野本町二丁目店\n","Address":"東京都中野区本町2-1-8"},"geometry":{"type":"Point","coordinates":[139.681516,35.692336]}},{"type":"Feature","properties":{"Name":"\nローソン 中野江原町二丁目店\n","Address":"東京都中野区江原町2-20-21"},"geometry":{"type":"Point","coordinates":[139.6684146,35.7306518]}},{"type":"Feature","properties":{"Name":"\nローソン 東中野ギンザ通り店\n","Address":"東京都中野区東中野3-17-13"},"geometry":{"type":"Point","coordinates":[139.6810069,35.7092037]}},{"type":"Feature","properties":{"Name":"\nローソンストア100 LS中野大和町三丁目店\n","Address":"東京都中野区大和町3-43-3ラビアン大和"},"geometry":{"type":"Point","coordinates":[139.6434358,35.7117031]}},{"type":"Feature","properties":{"Name":"\nローソンストア100 LS中野五丁目店\n","Address":"東京都中野区中野5-3-24"},"geometry":{"type":"Point","coordinates":[139.6728159,35.7090334]}},{"type":"Feature","properties":{"Name":"\nローソンストア100 東中野一丁目店\n","Address":"東京都中野区東中野1-45-5 日ノ出屋ビル"},"geometry":{"type":"Point","coordinates":[139.685838,35.704896]}},{"type":"Feature","properties":{"Name":"\nローソンストア100 LS中野新井四丁目店\n","Address":"東京都中野区新井4-18-16"},"geometry":{"type":"Point","coordinates":[139.66826,35.7163512]}},{"type":"Feature","properties":{"Name":"\nローソンストア100 LS中野南台店\n","Address":"東京都中野区南台3-1-15金城共同マンション"},"geometry":{"type":"Point","coordinates":[139.6691855,35.6828726]}},{"type":"Feature","properties":{"Name":"\nローソンストア100 LS東中野店\n","Address":"東京都中野区東中野4-6-2アペルト東中野ビル"},"geometry":{"type":"Point","coordinates":[139.6837395,35.70779]}},{"type":"Feature","properties":{"Name":"\nローソンストア100 LS中野中央店\n","Address":"東京都中野区中央1-21-2メゾン淀橋YSビル"},"geometry":{"type":"Point","coordinates":[139.6863258,35.6966509]}},{"type":"Feature","properties":{"Name":"\nローソンストア100 LS野方店\n","Address":"東京都中野区野方6-50-10MT野方1F"},"geometry":{"type":"Point","coordinates":[139.651046,35.72330700000001]}},{"type":"Feature","properties":{"Name":"\nローソンストア100 LS中野新橋店\n","Address":"東京都中野区弥生町2-43-10"},"geometry":{"type":"Point","coordinates":[139.6709213,35.6913475]}},{"type":"Feature","properties":{"Name":"\nローソンストア100 LS江古田店\n","Address":"東京都中野区江古田4-6-3"},"geometry":{"type":"Point","coordinates":[139.6628785,35.7239948]}},{"type":"Feature","properties":{"Name":"\nローソン 都立家政駅北店\n","Address":"東京都中野区鷺宮3-1-14"},"geometry":{"type":"Point","coordinates":[139.6438965,35.7229818]}},{"type":"Feature","properties":{"Name":"\nローソン 中野丸山一丁目店\n","Address":"東京都中野区丸山1-7-4"},"geometry":{"type":"Point","coordinates":[139.654858,35.7230637]}},{"type":"Feature","properties":{"Name":"\nローソン・スリーエフ 中野五丁目店\n","Address":"東京都中野区中野5-51-15"},"geometry":{"type":"Point","coordinates":[139.6663411,35.7094546]}},{"type":"Feature","properties":{"Name":"\nローソン・スリーエフ 中野弥生町店\n","Address":"東京都中野区弥生町3-11-2"},"geometry":{"type":"Point","coordinates":[139.6751116,35.686854]}},{"type":"Feature","properties":{"Name":"\nローソンサテライト 中野区役所店\n","Address":"東京都中野区中野4-8-1"},"geometry":{"type":"Point","coordinates":[139.663841,35.70738250000001]}},{"type":"Feature","properties":{"Name":"\nファミリーマート 中野南台店\n","Address":"東京都中野区南台3-15-1"},"geometry":{"type":"Point","coordinates":[139.6673422,35.6835007]}},{"type":"Feature","properties":{"Name":"\nファミリーマート 南台二丁目店\n","Address":"東京都中野区南台2-52-6"},"geometry":{"type":"Point","coordinates":[139.6693285,35.6860466]}},{"type":"Feature","properties":{"Name":"\nファミリーマート 東中野駅前店\n","Address":"東京都中野区東中野2-25-7"},"geometry":{"type":"Point","coordinates":[139.6824018,35.7059906]}},{"type":"Feature","properties":{"Name":"\nファミリーマート 上鷺宮二丁目店\n","Address":"東京都中野区上鷺宮2-11-2"},"geometry":{"type":"Point","coordinates":[139.6343105,35.7271147]}},{"type":"Feature","properties":{"Name":"\nファミリーマート 野方一丁目店\n","Address":"東京都中野区野方1丁目41-1"},"geometry":{"type":"Point","coordinates":[139.6550768,35.7099421]}},{"type":"Feature","properties":{"Name":"\nファミリーマート 中野駅北店\n","Address":"東京都中野区中野5-36-8"},"geometry":{"type":"Point","coordinates":[139.6666557,35.7078414]}},{"type":"Feature","properties":{"Name":"\nファミリーマート 野方駅南店\n","Address":"東京都中野区野方5丁目29-1"},"geometry":{"type":"Point","coordinates":[139.6527166,35.7188768]}},{"type":"Feature","properties":{"Name":"\nファミリーマート 中野駅南店\n","Address":"東京都中野区中野3丁目34-29"},"geometry":{"type":"Point","coordinates":[139.6651914,35.704475]}},{"type":"Feature","properties":{"Name":"\nファミリーマート 中野沼袋二丁目店\n","Address":"東京都中野区沼袋2丁目38番12号"},"geometry":{"type":"Point","coordinates":[139.6642036,35.723693]}},{"type":"Feature","properties":{"Name":"\nファミリーマート 中野弥生町一丁目店\n","Address":"東京都中野区弥生町1丁目38番5"},"geometry":{"type":"Point","coordinates":[139.677218,35.6876242]}},{"type":"Feature","properties":{"Name":"\nファミリーマート 東中野駅北店\n","Address":"東京都中野区東中野4丁目10番20号"},"geometry":{"type":"Point","coordinates":[139.6859808,35.7078341]}},{"type":"Feature","properties":{"Name":"\nファミリーマート 中野白鷺店\n","Address":"東京都中野区白鷺1丁目24番5号"},"geometry":{"type":"Point","coordinates":[139.6364217,35.7192986]}},{"type":"Feature","properties":{"Name":"\nファミリーマート 中野中央一丁目店\n","Address":"東京都中野区中央1丁目46番3号"},"geometry":{"type":"Point","coordinates":[139.6848068,35.6998331]}},{"type":"Feature","properties":{"Name":"\nファミリーマート 中野鷺宮一丁目店\n","Address":"東京都中野区鷺宮1丁目23番17号"},"geometry":{"type":"Point","coordinates":[139.6467318,35.7242749]}},{"type":"Feature","properties":{"Name":"\nファミリーマート 新中野駅前店\n","Address":"東京都中野区本町4丁目47-9  ヴェルティーク新中野1F"},"geometry":{"type":"Point","coordinates":[139.6680492,35.6972686]}},{"type":"Feature","properties":{"Name":"\nファミリーマート 中野本町六丁目店\n","Address":"東京都中野区本町6-13-8"},"geometry":{"type":"Point","coordinates":[139.6670915,35.6956882]}},{"type":"Feature","properties":{"Name":"\nファミリーマート 早稲田大学中野プラザ店\n","Address":"東京都中野区中野4-22-3"},"geometry":{"type":"Point","coordinates":[139.658474,35.7090044]}},{"type":"Feature","properties":{"Name":"\nファミリーマート 中野大和町四丁目店\n","Address":"東京都中野区大和町4丁目10番20号小西ビル"},"geometry":{"type":"Point","coordinates":[139.64812,35.7145804]}},{"type":"Feature","properties":{"Name":"\nファミリーマート 新中野店\n","Address":"東京都中野区中野2-2-1"},"geometry":{"type":"Point","coordinates":[139.6711114,35.7026595]}},{"type":"Feature","properties":{"Name":"\nファミリーマート 中野中央五丁目店\n","Address":"東京都中野区中央5丁目18番3号"},"geometry":{"type":"Point","coordinates":[139.6627271,35.6978323]}},{"type":"Feature","properties":{"Name":"\nファミリーマート 中野新井三丁目店\n","Address":"東京都中野区新井3丁目17番10号"},"geometry":{"type":"Point","coordinates":[139.6630684,35.71379410000001]}},{"type":"Feature","properties":{"Name":"\nファミリーマート 中野本町五丁目店\n","Address":"東京都中野区本町5丁目40-20"},"geometry":{"type":"Point","coordinates":[139.6685875,35.6917341]}},{"type":"Feature","properties":{"Name":"\nファミリーマート 中野松が丘店\n","Address":"東京都中野区松が丘2-4-15"},"geometry":{"type":"Point","coordinates":[139.6700031,35.7189874]}},{"type":"Feature","properties":{"Name":"\nファミリーマート 東中野ギンザ通り店\n","Address":"東京都中野区東中野3丁目1-20 不二園ビル"},"geometry":{"type":"Point","coordinates":[139.6826229,35.7066602]}},{"type":"Feature","properties":{"Name":"\nファミリーマート 新井薬師前駅南店\n","Address":"東京都中野区上高田3丁目19-11 モナミビル"},"geometry":{"type":"Point","coordinates":[139.672324,35.7156399]}},{"type":"Feature","properties":{"Name":"\nファミリーマート 薬ヒグチ鍋横店\n","Address":"東京都中野区本町4丁目43番11号鍋横ビル1階"},"geometry":{"type":"Point","coordinates":[139.6697237,35.6962941]}},{"type":"Feature","properties":{"Name":"\nファミリーマート 中野三丁目店\n","Address":"東京都中野区中野3丁目37-7"},"geometry":{"type":"Point","coordinates":[139.6641292,35.7053081]}},{"type":"Feature","properties":{"Name":"\nファミリーマート 中野弥生町二丁目店\n","Address":"東京都中野区弥生町2丁目30番4号"},"geometry":{"type":"Point","coordinates":[139.6733057,35.6915725]}},{"type":"Feature","properties":{"Name":"\nファミリーマート 薬ヒグチ中野新橋駅前店\n","Address":"東京都中野区弥生町2-26-9"},"geometry":{"type":"Point","coordinates":[139.6742583,35.6924128]}},{"type":"Feature","properties":{"Name":"\nファミリーマート 中野弥生町本郷通り店\n","Address":"東京都中野区弥生町1丁目24番8号 RUHE中野坂上"},"geometry":{"type":"Point","coordinates":[139.6800037,35.6915157]}},{"type":"Feature","properties":{"Name":"\nファミリーマート 中野五丁目店\n","Address":"東京都中野区中野5丁目67-6 ビジネスハイツ中野"},"geometry":{"type":"Point","coordinates":[139.6653183,35.7083692]}},{"type":"Feature","properties":{"Name":"\nファミリーマート 鷺宮駅前店\n","Address":"東京都中野区鷺宮3-20-3"},"geometry":{"type":"Point","coordinates":[139.6383269,35.7236819]}},{"type":"Feature","properties":{"Name":"\nファミリーマート 中野江古田の杜店\n","Address":"東京都中野区江古田3丁目14番1号プライムメゾン江古田の杜ウエスト1階"},"geometry":{"type":"Point","coordinates":[139.6668955,35.7275688]}},{"type":"Feature","properties":{"Name":"\nファミリーマート 中野中央二丁目店\n","Address":"東京都中野区中央2丁目36-12"},"geometry":{"type":"Point","coordinates":[139.6802833,35.7008584]}},{"type":"Feature","properties":{"Name":"\nファミリーマート 薬ヒグチ中野坂上西店\n","Address":"東京都中野区中央2丁目2番9号 第三戸谷ビル"},"geometry":{"type":"Point","coordinates":[139.6807912,35.6974093]}},{"type":"Feature","properties":{"Name":"\nファミリーマート 中野駅南口本通り店\n","Address":"東京都中野区中野2丁目30番3号"},"geometry":{"type":"Point","coordinates":[139.6656347,35.7041766]}},{"type":"Feature","properties":{"Name":"\nファミリーマート 東中野五丁目店\n","Address":"東京都中野区東中野5丁目6番1号"},"geometry":{"type":"Point","coordinates":[139.6881158,35.7069363]}},{"type":"Feature","properties":{"Name":"\nファミリーマート サンプラザ北店\n","Address":"東京都中野区中野4-2-1"},"geometry":{"type":"Point","coordinates":[139.6647645,35.7085213]}},{"type":"Feature","properties":{"Name":"\nファミリーマート 中野早稲田通り店\n","Address":"東京都中野区中野5丁目24番18号"},"geometry":{"type":"Point","coordinates":[139.6693793,35.7096201]}},{"type":"Feature","properties":{"Name":"\nファミリーマート 中野新井二丁目店\n","Address":"東京都中野区新井2-51-3"},"geometry":{"type":"Point","coordinates":[139.6603138,35.7122015]}},{"type":"Feature","properties":{"Name":"\nファミリーマート 紀伊国屋中野一丁目店\n","Address":"東京都中野区中野1-13-9"},"geometry":{"type":"Point","coordinates":[139.6768573,35.7050923]}},{"type":"Feature","properties":{"Name":"\nファミリーマート 鷺ノ宮駅南店\n","Address":"東京都中野区白鷺1丁目31番地20号"},"geometry":{"type":"Point","coordinates":[139.6381358,35.72235360000001]}},{"type":"Feature","properties":{"Name":"\nファミリーマート 野方駅北口店\n","Address":"東京都中野区野方6-3-4"},"geometry":{"type":"Point","coordinates":[139.6525785,35.7200756]}},{"type":"Feature","properties":{"Name":"\nファミリーマート 中野南口店\n","Address":"東京都中野区中野2丁目12番9号"},"geometry":{"type":"Point","coordinates":[139.6678849,35.7053145]}},{"type":"Feature","properties":{"Name":"\nファミリーマート 都立家政店\n","Address":"東京都中野区鷺宮2丁目6-7"},"geometry":{"type":"Point","coordinates":[139.6440389,35.725248]}},{"type":"Feature","properties":{"Name":"\nファミリーマート 中野沼袋四丁目店\n","Address":"東京都中野区沼袋4-29-15"},"geometry":{"type":"Point","coordinates":[139.6626293,35.7227353]}},{"type":"Feature","properties":{"Name":"\nファミリーマート 中野富士見町駅前店\n","Address":"東京都中野区弥生町5丁目27番7号"},"geometry":{"type":"Point","coordinates":[139.6671939,35.6908252]}},{"type":"Feature","properties":{"Name":"\nファミリーマート 中野通り店\n","Address":"東京都中野区新井2-1-15"},"geometry":{"type":"Point","coordinates":[139.6651607,35.7110545]}},{"type":"Feature","properties":{"Name":"\nファミリーマート 中野本町店\n","Address":"東京都中野区本町2-49-13 板屋ビル1F"},"geometry":{"type":"Point","coordinates":[139.680629,35.6970791]}},{"type":"Feature","properties":{"Name":"\nファミリーマート 中野弥生町店\n","Address":"東京都中野区弥生町1丁目28番8号"},"geometry":{"type":"Point","coordinates":[139.6782219,35.6914433]}},{"type":"Feature","properties":{"Name":"\nファミリーマート 中野桃園店\n","Address":"東京都中野区中野3丁目33-6"},"geometry":{"type":"Point","coordinates":[139.6650296,35.7032615]}},{"type":"Feature","properties":{"Name":"\nファミリーマート 中野新江古田店\n","Address":"東京都中野区江原町2丁目29番13号"},"geometry":{"type":"Point","coordinates":[139.6709156,35.7321914]}},{"type":"Feature","properties":{"Name":"\nファミリーマート 中野郵便局西店\n","Address":"東京都中野区中野2丁目29-16"},"geometry":{"type":"Point","coordinates":[139.6659562,35.7035744]}},{"type":"Feature","properties":{"Name":"\nファミリーマート 中野坂上ハーモニー店\n","Address":"東京都中野区本町1丁目32番2号"},"geometry":{"type":"Point","coordinates":[139.6833108,35.6961878]}},{"type":"Feature","properties":{"Name":"\nファミリーマート 中野江原町一丁目店\n","Address":"東京都中野区江原町1丁目46番18号"},"geometry":{"type":"Point","coordinates":[139.6741865,35.7309413]}},{"type":"Feature","properties":{"Name":"\nファミリーマート トモニー江古田駅店\n","Address":"東京都練馬区旭丘1丁目78-7"},"geometry":{"type":"Point","coordinates":[139.6729224,35.7375604]}},{"type":"Feature","properties":{"Name":"\nファミリーマート トモニー野方駅店\n","Address":"東京都中野区野方6-3-3"},"geometry":{"type":"Point","coordinates":[139.6527618,35.7195775]}},{"type":"Feature","properties":{"Name":"\nファミリーマート トモニー鷺ノ宮駅店\n","Address":"東京都中野区鷺宮3丁目15-1"},"geometry":{"type":"Point","coordinates":[139.6397957,35.7226293]}},{"type":"Feature","properties":{"Name":"\nファミリーマート 新井薬師店\n","Address":"東京都中野区上高田2-53-5"},"geometry":{"type":"Point","coordinates":[139.6684666,35.7130762]}},{"type":"Feature","properties":{"Name":"\nファミリーマート 南台中野通り店\n","Address":"東京都中野区南台2-28-8"},"geometry":{"type":"Point","coordinates":[139.6695395,35.6833745]}},{"type":"Feature","properties":{"Name":"\nファミリーマート 新井薬師駅前店\n","Address":"東京都中野区上高田5丁目43-1"},"geometry":{"type":"Point","coordinates":[139.6718967,35.7161034]}},{"type":"Feature","properties":{"Name":"\nファミリーマート 東中野駅東口店\n","Address":"東京都中野区東中野1丁目51-1"},"geometry":{"type":"Point","coordinates":[139.6862292,35.7060996]}},{"type":"Feature","properties":{"Name":"\nファミリーマート 東中野駅西口店\n","Address":"東京都中野区東中野4丁目4-5"},"geometry":{"type":"Point","coordinates":[139.683825,35.7066434]}},{"type":"Feature","properties":{"Name":"\nファミリーマート 都営線中野坂上駅店\n","Address":"東京都中野区中央2丁目2-28大江戸線中野坂上駅地下1階"},"geometry":{"type":"Point","coordinates":[139.6821613,35.6970686]}},{"type":"Feature","properties":{"Name":"\nミニストップ 中野5丁目店\n","Address":"東京都中野区中野5-1-1"},"geometry":{"type":"Point","coordinates":[139.6725202,35.70624189999999]}},{"type":"Feature","properties":{"Name":"\nミニストップ 中野駅北口店\n","Address":"東京都中野区中野5丁目36-3"},"geometry":{"type":"Point","coordinates":[139.6668762,35.7073725]}},{"type":"Feature","properties":{"Name":"\nミニストップ 中野鍋横店\n","Address":"東京都中野区本町4-44-23"},"geometry":{"type":"Point","coordinates":[139.6700995,35.6968247]}},{"type":"Feature","properties":{"Name":"\nミニストップ 南台5丁目店\n","Address":"東京都中野区南台5丁目21-4"},"geometry":{"type":"Point","coordinates":[139.6619602,35.6818594]}},{"type":"Feature","properties":{"Name":"\nセブンイレブン 中野中央1丁目店\n","Address":"東京都中野区中央1-38-1"},"geometry":{"type":"Point","coordinates":[139.6835619,35.6972783]}},{"type":"Feature","properties":{"Name":"\nセブンイレブン 中野上高田店\n","Address":"東京都中野区上高田2-40-14"},"geometry":{"type":"Point","coordinates":[139.6698809,35.7110348]}},{"type":"Feature","properties":{"Name":"\nセブンイレブン 中野鍋横店\n","Address":"東京都中野区本町4-36-3"},"geometry":{"type":"Point","coordinates":[139.668616,35.6940724]}},{"type":"Feature","properties":{"Name":"\nセブンイレブン 南台店\n","Address":"東京都中野区南台3-24-5"},"geometry":{"type":"Point","coordinates":[139.6663824,35.6856414]}},{"type":"Feature","properties":{"Name":"\nセブンイレブン 東中野2丁目店\n","Address":"東京都中野区東中野2-1-2"},"geometry":{"type":"Point","coordinates":[139.6821964,35.7011945]}},{"type":"Feature","properties":{"Name":"\nセブンイレブン 中野鷺宮店\n","Address":"東京都中野区鷺宮4-35-10"},"geometry":{"type":"Point","coordinates":[139.6380561,35.7247566]}},{"type":"Feature","properties":{"Name":"\nセブンイレブン 中野6丁目店\n","Address":"東京都中野区中野6-14-6"},"geometry":{"type":"Point","coordinates":[139.6758989,35.7083559]}},{"type":"Feature","properties":{"Name":"\nセブンイレブン 中野上高田1丁目店\n","Address":"東京都中野区上高田1-8-19"},"geometry":{"type":"Point","coordinates":[139.6787655,35.7114012]}},{"type":"Feature","properties":{"Name":"\nセブンイレブン 東中野末広橋店\n","Address":"東京都中野区東中野1-1-19"},"geometry":{"type":"Point","coordinates":[139.6871089,35.70177440000001]}},{"type":"Feature","properties":{"Name":"\nセブンイレブン 中野坂上駅前店\n","Address":"東京都中野区中央2-1-8"},"geometry":{"type":"Point","coordinates":[139.6825704,35.697389]}},{"type":"Feature","properties":{"Name":"\nセブンイレブン 中野都立家政店\n","Address":"東京都中野区若宮3ー19ー11"},"geometry":{"type":"Point","coordinates":[139.6443805,35.7217454]}},{"type":"Feature","properties":{"Name":"\nセブンイレブン 中野江古田店\n","Address":"東京都中野区江古田4-7-3"},"geometry":{"type":"Point","coordinates":[139.6628079,35.7243769]}},{"type":"Feature","properties":{"Name":"\nセブンイレブン 中野新井4丁目店\n","Address":"東京都中野区新井4ー1ー1"},"geometry":{"type":"Point","coordinates":[139.666354,35.7146051]}},{"type":"Feature","properties":{"Name":"\nセブンイレブン 中野一丁目店\n","Address":"東京都中野区中野1-32-6"},"geometry":{"type":"Point","coordinates":[139.6748921,35.7022207]}},{"type":"Feature","properties":{"Name":"\nセブンイレブン 中野中央中野通り店\n","Address":"東京都中野区中央5-4-22"},"geometry":{"type":"Point","coordinates":[139.667376,35.6988586]}},{"type":"Feature","properties":{"Name":"\nセブンイレブン 中野中央3丁目店\n","Address":"東京都中野区中央3-22-2"},"geometry":{"type":"Point","coordinates":[139.6747373,35.69789919999999]}},{"type":"Feature","properties":{"Name":"\nセブンイレブン 中野弥生町2丁目店\n","Address":"東京都中野区弥生町2-17-5"},"geometry":{"type":"Point","coordinates":[139.6743394,35.6902966]}},{"type":"Feature","properties":{"Name":"\nセブンイレブン 東中野銀座通り店\n","Address":"東京都中野区東中野3ー12ー7"},"geometry":{"type":"Point","coordinates":[139.6820276,35.7084183]}},{"type":"Feature","properties":{"Name":"\nセブンイレブン 中野鷺宮6丁目店\n","Address":"東京都中野区鷺宮6-30-18"},"geometry":{"type":"Point","coordinates":[139.6272542,35.727175]}},{"type":"Feature","properties":{"Name":"\nセブンイレブン 中野江古田1丁目店\n","Address":"東京都中野区江古田1-1-7"},"geometry":{"type":"Point","coordinates":[139.6752186,35.72378339999999]}},{"type":"Feature","properties":{"Name":"\nセブンイレブン 中野上高田2丁目店\n","Address":"東京都中野区上高田2丁目9-16"},"geometry":{"type":"Point","coordinates":[139.6733269,35.7109012]}},{"type":"Feature","properties":{"Name":"\nセブンイレブン 東中野1丁目店\n","Address":"東京都中野区東中野1-36-7"},"geometry":{"type":"Point","coordinates":[139.6856892,35.70421839999999]}},{"type":"Feature","properties":{"Name":"\nセブンイレブン 中野鷺宮1丁目店\n","Address":"東京都中野区鷺宮1ー28ー7"},"geometry":{"type":"Point","coordinates":[139.6439762,35.7237028]}},{"type":"Feature","properties":{"Name":"\nセブンイレブン 中野駅北口店\n","Address":"東京都中野区中野5-66-4"},"geometry":{"type":"Point","coordinates":[139.6653992,35.7077483]}},{"type":"Feature","properties":{"Name":"\nセブンイレブン 東中野駅南店\n","Address":"東京都中野区東中野2-24-1"},"geometry":{"type":"Point","coordinates":[139.6822466,35.7051576]}},{"type":"Feature","properties":{"Name":"\nセブンイレブン 中野新井薬師前駅北店\n","Address":"東京都中野区松が丘1ー17ー10"},"geometry":{"type":"Point","coordinates":[139.6728399,35.7181641]}},{"type":"Feature","properties":{"Name":"\nセブンイレブン 中野野方2丁目店\n","Address":"東京都中野区野方2-4-3"},"geometry":{"type":"Point","coordinates":[139.6585612,35.7151745]}},{"type":"Feature","properties":{"Name":"\nセブンイレブン 中野新橋店\n","Address":"東京都中野区本町3ー11ー5"},"geometry":{"type":"Point","coordinates":[139.6745575,35.6936557]}},{"type":"Feature","properties":{"Name":"\nセブンイレブン 東中野3丁目店\n","Address":"東京都中野区東中野3ー8ー15"},"geometry":{"type":"Point","coordinates":[139.6828413,35.707175]}},{"type":"Feature","properties":{"Name":"\nセブンイレブン 中野中央4丁目店\n","Address":"東京都中野区中央4-53-4ベルプラザ1F"},"geometry":{"type":"Point","coordinates":[139.6681888,35.7027171]}},{"type":"Feature","properties":{"Name":"\nセブンイレブン 中野沼袋駅前店\n","Address":"東京都中野区沼袋3ー4ー19"},"geometry":{"type":"Point","coordinates":[139.6633985,35.7190905]}},{"type":"Feature","properties":{"Name":"\nセブンイレブン 中野中央5丁目店\n","Address":"東京都中野区中央5丁目10番30号"},"geometry":{"type":"Point","coordinates":[139.6651403,35.6978248]}},{"type":"Feature","properties":{"Name":"\nセブンイレブン 中野中央店\n","Address":"東京都中野区中央4-22-18"},"geometry":{"type":"Point","coordinates":[139.6709868,35.7002831]}},{"type":"Feature","properties":{"Name":"\nセブンイレブン 中野桃園店\n","Address":"東京都中野区中野3-40-3"},"geometry":{"type":"Point","coordinates":[139.6633935,35.7041397]}},{"type":"Feature","properties":{"Name":"\nセブンイレブン 中野野方6丁目店\n","Address":"東京都中野区野方6-18-10"},"geometry":{"type":"Point","coordinates":[139.6525659,35.7229168]}},{"type":"Feature","properties":{"Name":"\nセブンイレブン 中野野方5丁目店\n","Address":"東京都中野区野方5-19-9"},"geometry":{"type":"Point","coordinates":[139.6512472,35.7188602]}},{"type":"Feature","properties":{"Name":"\nセブンイレブン 中野5丁目店\n","Address":"東京都中野区中野5丁目47-9"},"geometry":{"type":"Point","coordinates":[139.6670483,35.708905]}},{"type":"Feature","properties":{"Name":"\nセブンイレブン 中野新井店\n","Address":"東京都中野区新井2-31-1"},"geometry":{"type":"Point","coordinates":[139.6627711,35.7100476]}},{"type":"Feature","properties":{"Name":"\nセブンイレブン 中野大和町1丁目店\n","Address":"東京都中野区大和町1-2-1"},"geometry":{"type":"Point","coordinates":[139.6536535,35.7099213]}},{"type":"Feature","properties":{"Name":"\nセブンイレブン 中野坂上駅西店\n","Address":"東京都中野区中央2丁目5-1"},"geometry":{"type":"Point","coordinates":[139.6800752,35.69752640000001]}},{"type":"Feature","properties":{"Name":"\nセブンイレブン 中野サンモール店\n","Address":"東京都中野区中野5丁目65-9"},"geometry":{"type":"Point","coordinates":[139.6655212,35.7074573]}},{"type":"Feature","properties":{"Name":"\nセブンイレブン 中野鷺ノ宮駅前店\n","Address":"東京都中野区鷺宮3-18-2"},"geometry":{"type":"Point","coordinates":[139.6390677,35.7230605]}},{"type":"Feature","properties":{"Name":"\nセブンイレブン 中野大和町中央通り店\n","Address":"東京都中野区大和町4-12-1"},"geometry":{"type":"Point","coordinates":[139.6473713,35.7156966]}},{"type":"Feature","properties":{"Name":"\nセブンイレブン 中野本町4丁目店\n","Address":"東京都中野区本町4-48-10"},"geometry":{"type":"Point","coordinates":[139.6676671,35.6970038]}},{"type":"Feature","properties":{"Name":"\nセブンイレブン 中野野方駅東店\n","Address":"東京都中野区野方3-27-1"},"geometry":{"type":"Point","coordinates":[139.6564786,35.718916]}},{"type":"Feature","properties":{"Name":"\nセブンイレブン 東中野4丁目店\n","Address":"東京都中野区東中野4丁目29-9"},"geometry":{"type":"Point","coordinates":[139.6866507,35.7106806]}},{"type":"Feature","properties":{"Name":"\nセブンイレブン 中野上高田3丁目店\n","Address":"東京都中野区上高田3-22-9"},"geometry":{"type":"Point","coordinates":[139.672673,35.714753]}},{"type":"Feature","properties":{"Name":"\nセブンイレブン 中野もみじ山通り店\n","Address":"東京都中野区中野1丁目58番3"},"geometry":{"type":"Point","coordinates":[139.6731127,35.7038561]}},{"type":"Feature","properties":{"Name":"\nセブンイレブン 中野坂上駅南店\n","Address":"東京都中野区本町2-29-12"},"geometry":{"type":"Point","coordinates":[139.6821996,35.6952345]}},{"type":"Feature","properties":{"Name":"\nニューヤマザキデイリーストア 中野林店\n","Address":"東京都中野区本町6-31-2"},"geometry":{"type":"Point","coordinates":[139.663422,35.6954138]}}]}