{"type":"FeatureCollection","features":[{"type":"Feature","properties":{"Name":"\nローソン 東京ビッグサイトエントランス店\n","Address":"東京都江東区有明3-11-1"},"geometry":{"type":"Point","coordinates":[139.7942868,35.6298179]}},{"type":"Feature","properties":{"Name":"\nコミュニティショップ二口屋\n","Address":"東京都江東区大島4丁目12-12"},"geometry":{"type":"Point","coordinates":[139.8322956,35.6882129]}},{"type":"Feature","properties":{"Name":"\n吉田屋商店\n","Address":"東京都江東区枝川2丁目3-9"},"geometry":{"type":"Point","coordinates":[139.8060555,35.659245]}},{"type":"Feature","properties":{"Name":"\nデイリーヤマザキ門前仲町駅前店\n","Address":"東京都江東区富岡1丁目6-6"},"geometry":{"type":"Point","coordinates":[139.7971192,35.6710425]}},{"type":"Feature","properties":{"Name":"\nNEWDAYS(ニューデイズ) 新木場2号店\n","Address":"東京都江東区新木場1 新木場駅1・2番線ホーム内(蘇我方面)"},"geometry":{"type":"Point","coordinates":[139.8267917,35.6459065]}},{"type":"Feature","properties":{"Name":"\n生活彩家 OCS東京スカイゲート店\n","Address":"東京都江東区辰巳3-9-27 OCS東京スカイゲート 8F"},"geometry":{"type":"Point","coordinates":[139.8145263,35.64263460000001]}},{"type":"Feature","properties":{"Name":"\nNEWDAYS(ニューデイズ) 亀戸4号店\n","Address":"東京都江東区亀戸5-1 亀戸駅両国方面ホーム内"},"geometry":{"type":"Point","coordinates":[139.8265658,35.6973225]}},{"type":"Feature","properties":{"Name":"\nNEWDAYS(ニューデイズ) りんかい新木場店\n","Address":"東京都江東区新木場1 りんかい線新木場駅改札内"},"geometry":{"type":"Point","coordinates":[139.8267917,35.6459065]}},{"type":"Feature","properties":{"Name":"\nNEWDAYSMINI(ニューデイズミニ) 潮見1号店\n","Address":"東京都江東区潮見2-7-20 潮見駅改札外コンコース"},"geometry":{"type":"Point","coordinates":[139.8174046,35.6587316]}},{"type":"Feature","properties":{"Name":"\nNEWDAYSMINI(ニューデイズミニ) 亀戸1号店\n","Address":"東京都江東区亀戸5-1 亀戸駅北口改札内"},"geometry":{"type":"Point","coordinates":[139.8265658,35.6973225]}},{"type":"Feature","properties":{"Name":"\nNEWDAYS(ニューデイズ) 亀戸店\n","Address":"東京都江東区亀戸5-1 亀戸駅北口改札脇"},"geometry":{"type":"Point","coordinates":[139.8265658,35.6973225]}},{"type":"Feature","properties":{"Name":"\nNEWDAYS(ニューデイズ) 東京テレポート店\n","Address":"東京都江東区青海1-2-1 りんかい線東京テレポート駅改札外コンコース"},"geometry":{"type":"Point","coordinates":[139.7788145,35.6275325]}},{"type":"Feature","properties":{"Name":"\nCOMMUNITY STORE(コミュニティ・ストア) イーストスクエア東京店\n","Address":"東京都江東区新砂1-6-35 イーストスクエア東京1F"},"geometry":{"type":"Point","coordinates":[139.8235945,35.6671145]}},{"type":"Feature","properties":{"Name":"\nポプラ 古石場3丁目店\n","Address":"東京都江東区古石場3-8-1"},"geometry":{"type":"Point","coordinates":[139.8007949,35.6659652]}},{"type":"Feature","properties":{"Name":"\n生活彩家 豊洲センタービル店\n","Address":"東京都江東区豊洲3-3-3 豊洲センタービル1F"},"geometry":{"type":"Point","coordinates":[139.7963119,35.6558266]}},{"type":"Feature","properties":{"Name":"\n生活彩家 theSOHO青海店\n","Address":"東京都江東区青海2-7-4"},"geometry":{"type":"Point","coordinates":[139.7749925,35.6181091]}},{"type":"Feature","properties":{"Name":"\nサンフェスタ\n","Address":"東京都江東区千田7-17"},"geometry":{"type":"Point","coordinates":[139.8153896,35.68084109999999]}},{"type":"Feature","properties":{"Name":"\nコミュニティストア大阪屋\n","Address":"東京都江東区木場5-11-19"},"geometry":{"type":"Point","coordinates":[139.807925,35.66958]}},{"type":"Feature","properties":{"Name":"\nファミリーマート テレコムセンター店\n","Address":"東京都江東区青海2-5-10"},"geometry":{"type":"Point","coordinates":[139.7796947,35.6170866]}},{"type":"Feature","properties":{"Name":"\nデイリーヤマザキ 豊洲5丁目店\n","Address":"東京都江東区豊洲5-5-18"},"geometry":{"type":"Point","coordinates":[139.797342,35.6530697]}},{"type":"Feature","properties":{"Name":"\nローソン 南砂二丁目店\n","Address":"東京都江東区南砂2-37-1"},"geometry":{"type":"Point","coordinates":[139.825563,35.6718179]}},{"type":"Feature","properties":{"Name":"\nローソン 大島五丁目店\n","Address":"東京都江東区大島5-45-7"},"geometry":{"type":"Point","coordinates":[139.8366669,35.6897655]}},{"type":"Feature","properties":{"Name":"\nローソン 辰巳団地店\n","Address":"東京都江東区辰巳1-2-9-113"},"geometry":{"type":"Point","coordinates":[139.808645,35.650126]}},{"type":"Feature","properties":{"Name":"\nローソン 亀戸一丁目店\n","Address":"東京都江東区亀戸1-38-4"},"geometry":{"type":"Point","coordinates":[139.8241636,35.6962661]}},{"type":"Feature","properties":{"Name":"\nローソン 亀戸七丁目店\n","Address":"東京都江東区亀戸7-10-16"},"geometry":{"type":"Point","coordinates":[139.8347888,35.6973157]}},{"type":"Feature","properties":{"Name":"\nローソン 南砂五丁目店\n","Address":"東京都江東区南砂5-23-8"},"geometry":{"type":"Point","coordinates":[139.8339411,35.6759532]}},{"type":"Feature","properties":{"Name":"\nローソン 清澄三丁目店\n","Address":"東京都江東区清澄3-4-8"},"geometry":{"type":"Point","coordinates":[139.7979886,35.6818384]}},{"type":"Feature","properties":{"Name":"\nローソン 亀戸南店\n","Address":"東京都江東区亀戸6-1-15"},"geometry":{"type":"Point","coordinates":[139.8281932,35.6939742]}},{"type":"Feature","properties":{"Name":"\nローソン 亀戸水神店\n","Address":"東京都江東区亀戸8-14-13"},"geometry":{"type":"Point","coordinates":[139.8332322,35.7006771]}},{"type":"Feature","properties":{"Name":"\nローソン 東陽三丁目店\n","Address":"東京都江東区東陽3-7-10"},"geometry":{"type":"Point","coordinates":[139.8098847,35.6695236]}},{"type":"Feature","properties":{"Name":"\nローソン 新木場一丁目店\n","Address":"東京都江東区新木場1-8-19"},"geometry":{"type":"Point","coordinates":[139.834994,35.645821]}},{"type":"Feature","properties":{"Name":"\nローソン 江東亀戸六丁目店\n","Address":"東京都江東区亀戸6-29-10"},"geometry":{"type":"Point","coordinates":[139.8276071,35.6962446]}},{"type":"Feature","properties":{"Name":"\nローソン 江東住吉二丁目店\n","Address":"東京都江東区住吉2-16-8"},"geometry":{"type":"Point","coordinates":[139.8154342,35.6899055]}},{"type":"Feature","properties":{"Name":"\nローソン 有明コロシアム前店\n","Address":"東京都江東区有明1-3-19"},"geometry":{"type":"Point","coordinates":[139.790627,35.6385601]}},{"type":"Feature","properties":{"Name":"\nローソン アパホテル東京潮見駅前店\n","Address":"東京都江東区潮見2-8-6"},"geometry":{"type":"Point","coordinates":[139.8189755,35.6578741]}},{"type":"Feature","properties":{"Name":"\nローソン 亀戸二丁目店\n","Address":"東京都江東区亀戸2-18-10"},"geometry":{"type":"Point","coordinates":[139.8240397,35.6979057]}},{"type":"Feature","properties":{"Name":"\nローソン 住吉一丁目店\n","Address":"東京都江東区住吉1-16-14"},"geometry":{"type":"Point","coordinates":[139.8127108,35.6890512]}},{"type":"Feature","properties":{"Name":"\nローソン 東陽七丁目店\n","Address":"東京都江東区東陽7-1-10"},"geometry":{"type":"Point","coordinates":[139.8163654,35.6755744]}},{"type":"Feature","properties":{"Name":"\nローソン 猿江二丁目店\n","Address":"東京都江東区猿江2-3-14"},"geometry":{"type":"Point","coordinates":[139.8157716,35.6860193]}},{"type":"Feature","properties":{"Name":"\nナチュラルローソン 豊洲三丁目店\n","Address":"東京都江東区豊洲3-5-21"},"geometry":{"type":"Point","coordinates":[139.7958331,35.6586976]}},{"type":"Feature","properties":{"Name":"\nナチュラルローソン 東陽七丁目店\n","Address":"東京都江東区東陽7-1-2"},"geometry":{"type":"Point","coordinates":[139.8163974,35.6749635]}},{"type":"Feature","properties":{"Name":"\nローソン ホテルサンルート有明店\n","Address":"東京都江東区有明3-6-6"},"geometry":{"type":"Point","coordinates":[139.7894983,35.6321669]}},{"type":"Feature","properties":{"Name":"\nローソン H東砂七丁目店\n","Address":"東京都江東区東砂7-16-6"},"geometry":{"type":"Point","coordinates":[139.8403043,35.6752838]}},{"type":"Feature","properties":{"Name":"\nローソン 江東東雲一丁目店\n","Address":"東京都江東区東雲1-7-12"},"geometry":{"type":"Point","coordinates":[139.7985686,35.6478102]}},{"type":"Feature","properties":{"Name":"\nローソン 東雲駅前店\n","Address":"東京都江東区東雲2-10-1"},"geometry":{"type":"Point","coordinates":[139.8042444,35.6401764]}},{"type":"Feature","properties":{"Name":"\nローソン 江東運転免許試験場前店\n","Address":"東京都江東区南砂2-1-15"},"geometry":{"type":"Point","coordinates":[139.8217618,35.6695201]}},{"type":"Feature","properties":{"Name":"\nローソン 西大島駅前店\n","Address":"東京都江東区大島2-41-18"},"geometry":{"type":"Point","coordinates":[139.8261438,35.6895714]}},{"type":"Feature","properties":{"Name":"\nローソンストア100 LS江東大島六丁目団地店\n","Address":"東京都江東区大島6-1-1"},"geometry":{"type":"Point","coordinates":[139.8323778,35.690304]}},{"type":"Feature","properties":{"Name":"\nローソン 豊洲フロント店\n","Address":"東京都江東区豊洲3-2-20"},"geometry":{"type":"Point","coordinates":[139.795662,35.6568767]}},{"type":"Feature","properties":{"Name":"\nローソン 木場二丁目店\n","Address":"東京都江東区木場2-8-3"},"geometry":{"type":"Point","coordinates":[139.8028024,35.6698222]}},{"type":"Feature","properties":{"Name":"\nローソン 東雲一丁目店\n","Address":"東京都江東区東雲1-9-9"},"geometry":{"type":"Point","coordinates":[139.8023966,35.6470265]}},{"type":"Feature","properties":{"Name":"\nローソン 有明セントラルタワー店\n","Address":"東京都江東区有明3-7-18"},"geometry":{"type":"Point","coordinates":[139.7936757,35.6320627]}},{"type":"Feature","properties":{"Name":"\nローソン 大島四丁目店\n","Address":"東京都江東区大島4-3-2"},"geometry":{"type":"Point","coordinates":[139.8265977,35.6886009]}},{"type":"Feature","properties":{"Name":"\nローソン 新大橋一丁目店\n","Address":"東京都江東区新大橋1-9-6"},"geometry":{"type":"Point","coordinates":[139.7934226,35.6890487]}},{"type":"Feature","properties":{"Name":"\nローソン しののめ店\n","Address":"東京都江東区東雲2-1-19"},"geometry":{"type":"Point","coordinates":[139.8018548,35.6437915]}},{"type":"Feature","properties":{"Name":"\nローソン JPローソン東陽公園店\n","Address":"東京都江東区東陽3-27-30"},"geometry":{"type":"Point","coordinates":[139.8153085,35.6697282]}},{"type":"Feature","properties":{"Name":"\n【休業中】ローソン 江東木場店\n","Address":"東京都江東区木場6-4-4"},"geometry":{"type":"Point","coordinates":[139.8055652,35.6667189]}},{"type":"Feature","properties":{"Name":"\nローソン 木場公園店\n","Address":"東京都江東区木場3-18-14"},"geometry":{"type":"Point","coordinates":[139.8061736,35.6726631]}},{"type":"Feature","properties":{"Name":"\nローソン 江東清澄店\n","Address":"東京都江東区三好1-8-3"},"geometry":{"type":"Point","coordinates":[139.7992778,35.6803555]}},{"type":"Feature","properties":{"Name":"\nローソン 永代橋店\n","Address":"東京都江東区永代1-14-26"},"geometry":{"type":"Point","coordinates":[139.7906704,35.6748592]}},{"type":"Feature","properties":{"Name":"\nローソン TIME24店\n","Address":"東京都江東区青海2-4-32"},"geometry":{"type":"Point","coordinates":[139.7769343,35.6175817]}},{"type":"Feature","properties":{"Name":"\nローソン 東陽橋店\n","Address":"東京都江東区塩浜2-24-10-114"},"geometry":{"type":"Point","coordinates":[139.8152052,35.6642858]}},{"type":"Feature","properties":{"Name":"\nローソン お台場店\n","Address":"東京都江東区青海1-2-9"},"geometry":{"type":"Point","coordinates":[139.7770925,35.6266083]}},{"type":"Feature","properties":{"Name":"\nローソン 小名木川店\n","Address":"東京都江東区北砂5-20"},"geometry":{"type":"Point","coordinates":[139.832974,35.6840631]}},{"type":"Feature","properties":{"Name":"\nローソン 国際展示場駅前店\n","Address":"東京都江東区有明3-7-2"},"geometry":{"type":"Point","coordinates":[139.7912456,35.6340797]}},{"type":"Feature","properties":{"Name":"\nローソン 豊洲一丁目店\n","Address":"東京都江東区豊洲1-2-39"},"geometry":{"type":"Point","coordinates":[139.7924181,35.6600425]}},{"type":"Feature","properties":{"Name":"\nローソン 亀戸駅北口店\n","Address":"東京都江東区亀戸5-3-2"},"geometry":{"type":"Point","coordinates":[139.8262453,35.6984599]}},{"type":"Feature","properties":{"Name":"\nローソン 南砂葛西橋通店\n","Address":"東京都江東区南砂2-34-4"},"geometry":{"type":"Point","coordinates":[139.8261966,35.6747331]}},{"type":"Feature","properties":{"Name":"\nローソン 江東豊洲五丁目店\n","Address":"東京都江東区豊洲5-4-9"},"geometry":{"type":"Point","coordinates":[139.7965348,35.65205890000001]}},{"type":"Feature","properties":{"Name":"\nナチュラルローソン 昭和大学江東豊洲病院\n","Address":"東京都江東区豊洲5-1-38"},"geometry":{"type":"Point","coordinates":[139.7962722,35.6503083]}},{"type":"Feature","properties":{"Name":"\nローソン 墨東病院東店\n","Address":"東京都江東区亀戸1-4-2"},"geometry":{"type":"Point","coordinates":[139.8202718,35.6943489]}},{"type":"Feature","properties":{"Name":"\nローソン 南砂日曹橋店\n","Address":"東京都江東区南砂2-38-3"},"geometry":{"type":"Point","coordinates":[139.825479,35.66945]}},{"type":"Feature","properties":{"Name":"\nローソン JPローソン新東京郵便局事務棟店\n","Address":"東京都江東区新砂2-4-23新東京郵便局事務棟3F"},"geometry":{"type":"Point","coordinates":[139.8259797,35.6608423]}},{"type":"Feature","properties":{"Name":"\nローソン JPローソン深川郵便局店\n","Address":"東京都江東区東陽4-4-2"},"geometry":{"type":"Point","coordinates":[139.8178934,35.6702239]}},{"type":"Feature","properties":{"Name":"\nローソン 江東北砂二丁目店\n","Address":"東京都江東区北砂2-1-28"},"geometry":{"type":"Point","coordinates":[139.8271,35.6781177]}},{"type":"Feature","properties":{"Name":"\nローソン 江東森下一丁目店\n","Address":"東京都江東区森下1-16-10"},"geometry":{"type":"Point","coordinates":[139.7972658,35.6881511]}},{"type":"Feature","properties":{"Name":"\nローソン ポートストア有明店\n","Address":"東京都江東区有明4-4-24"},"geometry":{"type":"Point","coordinates":[139.7897689,35.6229295]}},{"type":"Feature","properties":{"Name":"\nローソン 東大島駅前店\n","Address":"東京都江東区大島7-39-27"},"geometry":{"type":"Point","coordinates":[139.8440526,35.6909531]}},{"type":"Feature","properties":{"Name":"\nローソンストア100 LS東大島店\n","Address":"東京都江東区大島8-42-17"},"geometry":{"type":"Point","coordinates":[139.8443784,35.689859]}},{"type":"Feature","properties":{"Name":"\nローソンストア100 LS江東白河二丁目店\n","Address":"東京都江東区白河2-5-13"},"geometry":{"type":"Point","coordinates":[139.8032769,35.6813317]}},{"type":"Feature","properties":{"Name":"\nローソンストア100 LS西大島店\n","Address":"東京都江東区大島4-5-11籐和西大島コープ"},"geometry":{"type":"Point","coordinates":[139.8277373,35.6891068]}},{"type":"Feature","properties":{"Name":"\nローソンストア100 LS東陽一丁目店\n","Address":"東京都江東区東陽1-28-4天野園ビル"},"geometry":{"type":"Point","coordinates":[139.8110895,35.6682559]}},{"type":"Feature","properties":{"Name":"\nローソンストア100 LS大島一丁目店\n","Address":"東京都江東区大島1-21-5エスポワール西大島"},"geometry":{"type":"Point","coordinates":[139.8248788,35.6866931]}},{"type":"Feature","properties":{"Name":"\nローソンストア100 LS住吉駅前店\n","Address":"東京都江東区住吉2-7-12はせ川ビル"},"geometry":{"type":"Point","coordinates":[139.8155257,35.6883694]}},{"type":"Feature","properties":{"Name":"\nローソンストア100 LS亀戸二丁目店\n","Address":"東京都江東区亀戸2-36-11"},"geometry":{"type":"Point","coordinates":[139.8250047,35.7002975]}},{"type":"Feature","properties":{"Name":"\nローソンストア100 江東石島店\n","Address":"東京都江東区石島10-7"},"geometry":{"type":"Point","coordinates":[139.8140471,35.6804966]}},{"type":"Feature","properties":{"Name":"\nローソンストア100 LS江東森下三丁目店\n","Address":"東京都江東区森下3-20-2"},"geometry":{"type":"Point","coordinates":[139.802309,35.6878522]}},{"type":"Feature","properties":{"Name":"\nローソンストア100 LS北砂三丁目店\n","Address":"東京都江東区北砂3-4-8"},"geometry":{"type":"Point","coordinates":[139.8269101,35.6848328]}},{"type":"Feature","properties":{"Name":"\nローソンストア100 江東牡丹一丁目店\n","Address":"東京都江東区牡丹1-14-1"},"geometry":{"type":"Point","coordinates":[139.7937299,35.6708537]}},{"type":"Feature","properties":{"Name":"\nローソン 江東区役所前店\n","Address":"東京都江東区東陽4-10-5"},"geometry":{"type":"Point","coordinates":[139.8165648,35.6715234]}},{"type":"Feature","properties":{"Name":"\nローソン ポートストア青海店\n","Address":"東京都江東区青海4-4-1"},"geometry":{"type":"Point","coordinates":[139.7817157,35.6183835]}},{"type":"Feature","properties":{"Name":"\nローソン ポートストア辰巳店\n","Address":"東京都江東区辰巳2-1"},"geometry":{"type":"Point","coordinates":[139.8144266,35.6485026]}},{"type":"Feature","properties":{"Name":"\nローソン 江東住吉大門通店\n","Address":"東京都江東区住吉1-7-8"},"geometry":{"type":"Point","coordinates":[139.8112693,35.6879757]}},{"type":"Feature","properties":{"Name":"\nローソン メトロス新木場店\n","Address":"東京都江東区新木場1-6先有楽町線新木場駅構内"},"geometry":{"type":"Point","coordinates":[139.8266952,35.6459022]}},{"type":"Feature","properties":{"Name":"\nローソン メトロス門前仲町西口店\n","Address":"東京都江東区門前仲町1-4-8"},"geometry":{"type":"Point","coordinates":[139.7944241,35.6722651]}},{"type":"Feature","properties":{"Name":"\nローソン メトロス豊洲店\n","Address":"東京都江東区豊洲4-1-1"},"geometry":{"type":"Point","coordinates":[139.7970579,35.6545689]}},{"type":"Feature","properties":{"Name":"\nローソン・スリーエフ 江東森下二丁目店\n","Address":"東京都江東区森下2-23-2"},"geometry":{"type":"Point","coordinates":[139.7985292,35.6886975]}},{"type":"Feature","properties":{"Name":"\nローソン・スリーエフ 江東猿江店\n","Address":"東京都江東区猿江2-11-8"},"geometry":{"type":"Point","coordinates":[139.8156367,35.6870862]}},{"type":"Feature","properties":{"Name":"\nローソン・スリーエフ 大島七丁目店\n","Address":"東京都江東区大島7-41-10"},"geometry":{"type":"Point","coordinates":[139.8434915,35.6928804]}},{"type":"Feature","properties":{"Name":"\nローソン 江東猿江一丁目店\n","Address":"東京都江東区猿江1-17-17"},"geometry":{"type":"Point","coordinates":[139.8107498,35.6867989]}},{"type":"Feature","properties":{"Name":"\nローソン 東京ビッグサイト南棟店\n","Address":"東京都江東区有明3-11-1"},"geometry":{"type":"Point","coordinates":[139.7942868,35.6298179]}},{"type":"Feature","properties":{"Name":"\nローソン Tokyoビッグベイ店\n","Address":"東京都江東区東雲2-13-32"},"geometry":{"type":"Point","coordinates":[139.8027158,35.6372165]}},{"type":"Feature","properties":{"Name":"\nファミリーマート ヤマキ千田店\n","Address":"東京都江東区千田16-1"},"geometry":{"type":"Point","coordinates":[139.8162351,35.6818082]}},{"type":"Feature","properties":{"Name":"\nファミリーマート 北砂五丁目店\n","Address":"東京都江東区北砂5-21-13"},"geometry":{"type":"Point","coordinates":[139.8309385,35.6841264]}},{"type":"Feature","properties":{"Name":"\nファミリーマート がん研有明病院店\n","Address":"東京都江東区有明3丁目8-31"},"geometry":{"type":"Point","coordinates":[139.7946914,35.6342222]}},{"type":"Feature","properties":{"Name":"\nファミリーマート 東砂七丁目店\n","Address":"東京都江東区東砂7丁目19番5号"},"geometry":{"type":"Point","coordinates":[139.837805,35.6726561]}},{"type":"Feature","properties":{"Name":"\nファミリーマート 大島八丁目店\n","Address":"東京都江東区大島8-40-4"},"geometry":{"type":"Point","coordinates":[139.8447524,35.68857]}},{"type":"Feature","properties":{"Name":"\nファミリーマート 門前仲町一丁目店\n","Address":"東京都江東区門前仲町1-5-5"},"geometry":{"type":"Point","coordinates":[139.7933466,35.6728234]}},{"type":"Feature","properties":{"Name":"\nファミリーマート 牡丹一丁目店\n","Address":"東京都江東区牡丹1-2-2"},"geometry":{"type":"Point","coordinates":[139.7934106,35.6706084]}},{"type":"Feature","properties":{"Name":"\nファミリーマート 豊洲四丁目店\n","Address":"東京都江東区豊洲4-1-3"},"geometry":{"type":"Point","coordinates":[139.7972736,35.6547293]}},{"type":"Feature","properties":{"Name":"\nファミリーマート 江東新砂店\n","Address":"東京都江東区新砂3-2-1"},"geometry":{"type":"Point","coordinates":[139.828891,35.6682712]}},{"type":"Feature","properties":{"Name":"\nファミリーマート 門前仲町駅前店\n","Address":"東京都江東区門前仲町1-7-12木屋源ビル"},"geometry":{"type":"Point","coordinates":[139.7943867,35.6728743]}},{"type":"Feature","properties":{"Name":"\nファミリーマート アネックス豊洲店\n","Address":"東京都江東区豊洲4-8-8"},"geometry":{"type":"Point","coordinates":[139.7994744,35.6553799]}},{"type":"Feature","properties":{"Name":"\nファミリーマート 木場二丁目店\n","Address":"東京都江東区木場2-19"},"geometry":{"type":"Point","coordinates":[139.8053149,35.6696953]}},{"type":"Feature","properties":{"Name":"\nファミリーマート 東陽六丁目店\n","Address":"東京都江東区東陽6-2-56"},"geometry":{"type":"Point","coordinates":[139.8128279,35.6745682]}},{"type":"Feature","properties":{"Name":"\nファミリーマート 豊洲センタービルアネックス店\n","Address":"東京都江東区豊洲3-3-9豊洲センタービルアネックス"},"geometry":{"type":"Point","coordinates":[139.7970598,35.6559025]}},{"type":"Feature","properties":{"Name":"\nファミリーマート 大島四丁目店\n","Address":"東京都江東区大島4丁目1番32号"},"geometry":{"type":"Point","coordinates":[139.8268174,35.6866821]}},{"type":"Feature","properties":{"Name":"\nファミリーマート 亀戸四丁目店\n","Address":"東京都江東区亀戸4-45-11"},"geometry":{"type":"Point","coordinates":[139.8295608,35.7019054]}},{"type":"Feature","properties":{"Name":"\nファミリーマート 門前仲町店\n","Address":"東京都江東区門前仲町2-3-8"},"geometry":{"type":"Point","coordinates":[139.795638,35.6718278]}},{"type":"Feature","properties":{"Name":"\nファミリーマート 亀戸駅前店\n","Address":"東京都江東区亀戸2-22-12"},"geometry":{"type":"Point","coordinates":[139.8254006,35.6982884]}},{"type":"Feature","properties":{"Name":"\nファミリーマート TKD亀戸六丁目店\n","Address":"東京都江東区亀戸6-54-7"},"geometry":{"type":"Point","coordinates":[139.8327791,35.6967183]}},{"type":"Feature","properties":{"Name":"\nファミリーマート 文福南砂店\n","Address":"東京都江東区南砂6-2-2"},"geometry":{"type":"Point","coordinates":[139.8341077,35.6711848]}},{"type":"Feature","properties":{"Name":"\nファミリーマート 江東福住一丁目店\n","Address":"東京都江東区福住1丁目8番10号"},"geometry":{"type":"Point","coordinates":[139.793981,35.6763809]}},{"type":"Feature","properties":{"Name":"\nファミリーマート 江東亀戸五丁目店\n","Address":"東京都江東区亀戸5丁目14-8"},"geometry":{"type":"Point","coordinates":[139.8257908,35.6994772]}},{"type":"Feature","properties":{"Name":"\nファミリーマート 江東森下四丁目店\n","Address":"東京都江東区森下4丁目10-8"},"geometry":{"type":"Point","coordinates":[139.8060244,35.6859154]}},{"type":"Feature","properties":{"Name":"\nファミリーマート サクマ新木場駅店\n","Address":"東京都江東区新木場1丁目6番1号"},"geometry":{"type":"Point","coordinates":[139.8264402,35.6458462]}},{"type":"Feature","properties":{"Name":"\nファミリーマート 江東北砂店\n","Address":"東京都江東区北砂5丁目17-1"},"geometry":{"type":"Point","coordinates":[139.8342026,35.6816885]}},{"type":"Feature","properties":{"Name":"\nファミリーマート 亀戸駅南店\n","Address":"東京都江東区亀戸1丁目32-6 ウイングス・ハイ亀戸"},"geometry":{"type":"Point","coordinates":[139.8255184,35.6953462]}},{"type":"Feature","properties":{"Name":"\nファミリーマート 薬ヒグチ亀戸東口店\n","Address":"東京都江東区亀戸6-62-8"},"geometry":{"type":"Point","coordinates":[139.8289962,35.6972041]}},{"type":"Feature","properties":{"Name":"\nファミリーマート 大島五丁目店\n","Address":"東京都江東区大島5-32-12"},"geometry":{"type":"Point","coordinates":[139.8358841,35.68854779999999]}},{"type":"Feature","properties":{"Name":"\nファミリーマート 東砂三丁目店\n","Address":"東京都江東区東砂3-17"},"geometry":{"type":"Point","coordinates":[139.8424098,35.6813752]}},{"type":"Feature","properties":{"Name":"\nファミリーマート 大島中央銀座店\n","Address":"東京都江東区大島5丁目11-2"},"geometry":{"type":"Point","coordinates":[139.8344377,35.6888723]}},{"type":"Feature","properties":{"Name":"\nファミリーマート 江東福住二丁目店\n","Address":"東京都江東区福住2丁目3-16"},"geometry":{"type":"Point","coordinates":[139.7937763,35.6775211]}},{"type":"Feature","properties":{"Name":"\nファミリーマート 江東境川店\n","Address":"東京都江東区南砂5-4-8"},"geometry":{"type":"Point","coordinates":[139.8279595,35.6767925]}},{"type":"Feature","properties":{"Name":"\nファミリーマート 辰巳一丁目店\n","Address":"東京都江東区辰巳1-4-11"},"geometry":{"type":"Point","coordinates":[139.8083302,35.65219099999999]}},{"type":"Feature","properties":{"Name":"\nファミリーマート 北砂六丁目店\n","Address":"東京都江東区北砂6丁目12-7"},"geometry":{"type":"Point","coordinates":[139.8364269,35.6842236]}},{"type":"Feature","properties":{"Name":"\nファミリーマート 深川高橋店\n","Address":"東京都江東区高橋12-1"},"geometry":{"type":"Point","coordinates":[139.7986972,35.6852378]}},{"type":"Feature","properties":{"Name":"\nファミリーマート K2潮見一丁目店\n","Address":"東京都江東区潮見1-5-6"},"geometry":{"type":"Point","coordinates":[139.8129742,35.6565828]}},{"type":"Feature","properties":{"Name":"\nファミリーマート 東京湾岸警察署前店\n","Address":"東京都江東区青海2丁目7-4THESOHO"},"geometry":{"type":"Point","coordinates":[139.775046,35.618362]}},{"type":"Feature","properties":{"Name":"\nファミリーマート 平野二丁目店\n","Address":"東京都江東区平野2丁目2番20レジデンス清澄白河"},"geometry":{"type":"Point","coordinates":[139.8028773,35.6768657]}},{"type":"Feature","properties":{"Name":"\nファミリーマート 清澄白河駅前店\n","Address":"東京都江東区白河1-6-12"},"geometry":{"type":"Point","coordinates":[139.7996607,35.6822342]}},{"type":"Feature","properties":{"Name":"\nファミリーマート 東京イースト21店\n","Address":"東京都江東区東陽6丁目3-2"},"geometry":{"type":"Point","coordinates":[139.815734,35.6753038]}},{"type":"Feature","properties":{"Name":"\nファミリーマート TKD亀戸中之橋店\n","Address":"東京都江東区亀戸7-60-12"},"geometry":{"type":"Point","coordinates":[139.8376698,35.6951778]}},{"type":"Feature","properties":{"Name":"\nファミリーマート 江東石島店\n","Address":"東京都江東区石島5番8"},"geometry":{"type":"Point","coordinates":[139.8121018,35.6803851]}},{"type":"Feature","properties":{"Name":"\nファミリーマート 江東白河四丁目店\n","Address":"東京都江東区白河4丁目2-5"},"geometry":{"type":"Point","coordinates":[139.8068933,35.6823309]}},{"type":"Feature","properties":{"Name":"\nファミリーマート TKD西大島店\n","Address":"東京都江東区大島2-35-12"},"geometry":{"type":"Point","coordinates":[139.8259338,35.6917307]}},{"type":"Feature","properties":{"Name":"\nファミリーマート 白河二丁目店\n","Address":"東京都江東区白河2-7-8"},"geometry":{"type":"Point","coordinates":[139.8035798,35.6821104]}},{"type":"Feature","properties":{"Name":"\nファミリーマート 牡丹三丁目店\n","Address":"東京都江東区牡丹3丁目22番2号"},"geometry":{"type":"Point","coordinates":[139.7989216,35.6685338]}},{"type":"Feature","properties":{"Name":"\nファミリーマート 木場五丁目店\n","Address":"東京都江東区木場5丁目11-19大坂屋ビル1階"},"geometry":{"type":"Point","coordinates":[139.8079324,35.6695765]}},{"type":"Feature","properties":{"Name":"\nファミリーマート 潮見駅南店\n","Address":"東京都江東区潮見2-10-22"},"geometry":{"type":"Point","coordinates":[139.8181525,35.6569861]}},{"type":"Feature","properties":{"Name":"\nファミリーマート 江東東砂店\n","Address":"東京都江東区東砂3丁目15-24 グランデュール吉武"},"geometry":{"type":"Point","coordinates":[139.8409904,35.6806462]}},{"type":"Feature","properties":{"Name":"\nファミリーマート 昭和薬品西大島駅前店\n","Address":"東京都江東区大島3丁目1-6"},"geometry":{"type":"Point","coordinates":[139.8271659,35.6896771]}},{"type":"Feature","properties":{"Name":"\nファミリーマート 江東有明店\n","Address":"東京都江東区有明1丁目1番17号"},"geometry":{"type":"Point","coordinates":[139.7958376,35.6422838]}},{"type":"Feature","properties":{"Name":"\nファミリーマート 江東北砂五丁目店\n","Address":"東京都江東区北砂5-14-16 砂銀ビル"},"geometry":{"type":"Point","coordinates":[139.8346932,35.6801922]}},{"type":"Feature","properties":{"Name":"\nファミリーマート 東陽四丁目店\n","Address":"東京都江東区東陽4-6-19"},"geometry":{"type":"Point","coordinates":[139.8195039,35.669888]}},{"type":"Feature","properties":{"Name":"\nファミリーマート 有明フロンティア店\n","Address":"東京都江東区有明3-7-26-106"},"geometry":{"type":"Point","coordinates":[139.7915243,35.6319067]}},{"type":"Feature","properties":{"Name":"\nファミリーマート 深川門前仲町店\n","Address":"東京都江東区富岡1-23-16"},"geometry":{"type":"Point","coordinates":[139.7987888,35.6709575]}},{"type":"Feature","properties":{"Name":"\nファミリーマート 南砂六丁目店\n","Address":"東京都江東区南砂6-1-6"},"geometry":{"type":"Point","coordinates":[139.8327432,35.6716579]}},{"type":"Feature","properties":{"Name":"\nファミリーマート 江東東陽一丁目店\n","Address":"東京都江東区東陽1-16-12"},"geometry":{"type":"Point","coordinates":[139.810586,35.6676562]}},{"type":"Feature","properties":{"Name":"\nファミリーマート 江東北砂四丁目店\n","Address":"東京都江東区北砂4丁目32-14"},"geometry":{"type":"Point","coordinates":[139.8326956,35.676595]}},{"type":"Feature","properties":{"Name":"\nファミリーマート 新木場一丁目店\n","Address":"東京都江東区新木場1丁目11"},"geometry":{"type":"Point","coordinates":[139.8364923,35.6426764]}},{"type":"Feature","properties":{"Name":"\nファミリーマート 江東新木場二丁目店\n","Address":"東京都江東区新木場2丁目10番5号"},"geometry":{"type":"Point","coordinates":[139.8234788,35.6381588]}},{"type":"Feature","properties":{"Name":"\nファミリーマート ポートストア若洲店\n","Address":"東京都江東区若洲1丁目1番4号"},"geometry":{"type":"Point","coordinates":[139.8356235,35.6306536]}},{"type":"Feature","properties":{"Name":"\nファミリーマート 江東亀戸九丁目店\n","Address":"東京都江東区亀戸9丁目34番1-138号"},"geometry":{"type":"Point","coordinates":[139.8404459,35.7002831]}},{"type":"Feature","properties":{"Name":"\nファミリーマート 江東門前仲町店\n","Address":"東京都江東区門前仲町1-8-11"},"geometry":{"type":"Point","coordinates":[139.794679,35.6730421]}},{"type":"Feature","properties":{"Name":"\nファミリーマート 江東塩浜二丁目店\n","Address":"東京都江東区塩浜2丁目14番1号"},"geometry":{"type":"Point","coordinates":[139.8086682,35.6629916]}},{"type":"Feature","properties":{"Name":"\nファミリーマート 豊洲五丁目店\n","Address":"東京都江東区豊洲5丁目2番10号 沢真ビル"},"geometry":{"type":"Point","coordinates":[139.7955453,35.6534567]}},{"type":"Feature","properties":{"Name":"\nファミリーマート TKD森下一丁目店\n","Address":"東京都江東区森下1丁目5-5"},"geometry":{"type":"Point","coordinates":[139.7980627,35.6867072]}},{"type":"Feature","properties":{"Name":"\nファミリーマート 大島二丁目店\n","Address":"東京都江東区大島2-19-12"},"geometry":{"type":"Point","coordinates":[139.8231958,35.6894321]}},{"type":"Feature","properties":{"Name":"\nファミリーマート 江東木場二丁目店\n","Address":"東京都江東区木場2丁目6番3号メインステージ木場"},"geometry":{"type":"Point","coordinates":[139.8029939,35.6693819]}},{"type":"Feature","properties":{"Name":"\nファミリーマート 江東南砂四丁目店\n","Address":"東京都江東区南砂4丁目4番20号"},"geometry":{"type":"Point","coordinates":[139.8279278,35.6747304]}},{"type":"Feature","properties":{"Name":"\nファミリーマート 東雲橋店\n","Address":"東京都江東区東雲1-10-18"},"geometry":{"type":"Point","coordinates":[139.8024045,35.6500036]}},{"type":"Feature","properties":{"Name":"\nファミリーマート 江東冬木店\n","Address":"東京都江東区冬木23番13-103号"},"geometry":{"type":"Point","coordinates":[139.7997203,35.67536690000001]}},{"type":"Feature","properties":{"Name":"\nファミリーマート 江東深川二丁目店\n","Address":"東京都江東区深川2-5-1"},"geometry":{"type":"Point","coordinates":[139.7962851,35.6744041]}},{"type":"Feature","properties":{"Name":"\nファミリーマート テレコムセンター店\n","Address":"東京都江東区青海2丁目5-10"},"geometry":{"type":"Point","coordinates":[139.7796947,35.6170866]}},{"type":"Feature","properties":{"Name":"\nファミリーマート 青海フロンティア店\n","Address":"東京都江東区青海2丁目4-24青海フロンティアビル"},"geometry":{"type":"Point","coordinates":[139.7783933,35.6176484]}},{"type":"Feature","properties":{"Name":"\nファミリーマート B.Sガレリア店\n","Address":"東京都江東区有明3丁目10-1国際展示場東展示棟"},"geometry":{"type":"Point","coordinates":[139.7995331,35.6326937]}},{"type":"Feature","properties":{"Name":"\nファミリーマート 東陽二丁目店\n","Address":"東京都江東区東陽2丁目4-46"},"geometry":{"type":"Point","coordinates":[139.8193583,35.6691276]}},{"type":"Feature","properties":{"Name":"\nファミリーマート 東陽町駅前店\n","Address":"東京都江東区東陽4丁目1-2"},"geometry":{"type":"Point","coordinates":[139.8166287,35.6693024]}},{"type":"Feature","properties":{"Name":"\nファミリーマート 江東東雲一丁目店\n","Address":"東京都江東区東雲1丁目9-11-104"},"geometry":{"type":"Point","coordinates":[139.8041555,35.6459492]}},{"type":"Feature","properties":{"Name":"\nファミリーマート 豊洲キャナルフロント店\n","Address":"東京都江東区豊洲5丁目6-52"},"geometry":{"type":"Point","coordinates":[139.7992869,35.6505408]}},{"type":"Feature","properties":{"Name":"\nファミリーマート 江東亀戸二丁目店\n","Address":"東京都江東区亀戸2丁目33-4"},"geometry":{"type":"Point","coordinates":[139.8235228,35.7001779]}},{"type":"Feature","properties":{"Name":"\nファミリーマート ヴィーナスフォート店\n","Address":"東京都江東区青海1丁目3-15"},"geometry":{"type":"Point","coordinates":[139.7802249,35.6253377]}},{"type":"Feature","properties":{"Name":"\nファミリーマート 森下二丁目店\n","Address":"東京都江東区森下2丁目17-6"},"geometry":{"type":"Point","coordinates":[139.7986934,35.6878475]}},{"type":"Feature","properties":{"Name":"\nコミュニティ・ストア 東陽町 サンヒダカ店\n","Address":"東京都江東区東陽2-4-29 マルシンビル1F"},"geometry":{"type":"Point","coordinates":[139.8167847,35.6690092]}},{"type":"Feature","properties":{"Name":"\nコミュニティ・ストア ぬ利彦 東雲店\n","Address":"東京都江東区東雲2-8-10 臨海副都心線東雲駅"},"geometry":{"type":"Point","coordinates":[139.8034612,35.6405945]}},{"type":"Feature","properties":{"Name":"\nミニストップ 大島1丁目店\n","Address":"東京都江東区大島1-34-15"},"geometry":{"type":"Point","coordinates":[139.8262907,35.6876676]}},{"type":"Feature","properties":{"Name":"\nミニストップ WANZA有明店\n","Address":"東京都江東区有明3-6 東京ファッションタウン2F"},"geometry":{"type":"Point","coordinates":[139.7896524,35.630117]}},{"type":"Feature","properties":{"Name":"\nミニストップ 潮見駅前店\n","Address":"東京都江東区潮見2-6-1"},"geometry":{"type":"Point","coordinates":[139.8161479,35.6594037]}},{"type":"Feature","properties":{"Name":"\nミニストップ 越中島通り店\n","Address":"東京都江東区越中島3-6-15 タ-ミナル棟"},"geometry":{"type":"Point","coordinates":[139.7980572,35.6648997]}},{"type":"Feature","properties":{"Name":"\nミニストップ 亀戸9丁目店\n","Address":"東京都江東区亀戸9-11-1"},"geometry":{"type":"Point","coordinates":[139.846193,35.6962621]}},{"type":"Feature","properties":{"Name":"\nミニストップ 北砂6丁目店\n","Address":"東京都江東区北砂6-27-21"},"geometry":{"type":"Point","coordinates":[139.8382856,35.6803694]}},{"type":"Feature","properties":{"Name":"\nミニストップ 南砂町駅前店\n","Address":"東京都江東区南砂3丁目14-1-104"},"geometry":{"type":"Point","coordinates":[139.831998,35.6688765]}},{"type":"Feature","properties":{"Name":"\nミニストップ 江東千石店\n","Address":"東京都江東区千石1-8-4"},"geometry":{"type":"Point","coordinates":[139.81331,35.678289]}},{"type":"Feature","properties":{"Name":"\nミニストップ 福通越中島店\n","Address":"東京都江東区越中島3-6-15"},"geometry":{"type":"Point","coordinates":[139.7981529,35.664878]}},{"type":"Feature","properties":{"Name":"\nミニストップ 江東枝川1丁目店\n","Address":"東京都江東区枝川1丁目9番6号"},"geometry":{"type":"Point","coordinates":[139.8017426,35.6569536]}},{"type":"Feature","properties":{"Name":"\nミニストップ 365table東砂店\n","Address":"東京都江東区東砂7-1-1"},"geometry":{"type":"Point","coordinates":[139.8383476,35.6700846]}},{"type":"Feature","properties":{"Name":"\nセブンイレブン 江東深川ギャザリア店\n","Address":"東京都江東区木場1-5-65"},"geometry":{"type":"Point","coordinates":[139.8032711,35.6673299]}},{"type":"Feature","properties":{"Name":"\nセブンイレブン 7FSビッグサイト店\n","Address":"東京都江東区有明3-11-1"},"geometry":{"type":"Point","coordinates":[139.7942868,35.6298179]}},{"type":"Feature","properties":{"Name":"\nセブンイレブン 江東東陽4丁目店\n","Address":"東京都江東区東陽4-6-11"},"geometry":{"type":"Point","coordinates":[139.8193914,35.6708274]}},{"type":"Feature","properties":{"Name":"\nセブンイレブン 江東大島1丁目店\n","Address":"東京都江東区大島1-1-18"},"geometry":{"type":"Point","coordinates":[139.8221404,35.6862615]}},{"type":"Feature","properties":{"Name":"\nセブンイレブン 亀戸駅前店\n","Address":"東京都江東区亀戸2丁目20番3号"},"geometry":{"type":"Point","coordinates":[139.8250889,35.6976914]}},{"type":"Feature","properties":{"Name":"\nセブンイレブン ヤマタネビル店\n","Address":"東京都江東区越中島1-2-21"},"geometry":{"type":"Point","coordinates":[139.7912772,35.6707778]}},{"type":"Feature","properties":{"Name":"\nセブンイレブン 江東三好4丁目店\n","Address":"東京都江東区三好4-6-7"},"geometry":{"type":"Point","coordinates":[139.8093443,35.68138]}},{"type":"Feature","properties":{"Name":"\nセブンイレブン 江東北砂7丁目店\n","Address":"東京都江東区北砂7丁目9-20"},"geometry":{"type":"Point","coordinates":[139.8361539,35.6763016]}},{"type":"Feature","properties":{"Name":"\nセブンイレブン 東雲店\n","Address":"東京都江東区東雲1-8-17"},"geometry":{"type":"Point","coordinates":[139.8007412,35.6449611]}},{"type":"Feature","properties":{"Name":"\nセブンイレブン 森下店\n","Address":"東京都江東区森下3-1-11"},"geometry":{"type":"Point","coordinates":[139.8006838,35.6853682]}},{"type":"Feature","properties":{"Name":"\nセブンイレブン 亀戸三丁目店\n","Address":"東京都江東区亀戸3ー23ー1"},"geometry":{"type":"Point","coordinates":[139.8217401,35.7039393]}},{"type":"Feature","properties":{"Name":"\nセブンイレブン 江東毛利店\n","Address":"東京都江東区毛利1-6-10"},"geometry":{"type":"Point","coordinates":[139.8131778,35.6920514]}},{"type":"Feature","properties":{"Name":"\nセブンイレブン 江東佐賀2丁目店\n","Address":"東京都江東区佐賀2-12-7"},"geometry":{"type":"Point","coordinates":[139.7934596,35.6789196]}},{"type":"Feature","properties":{"Name":"\nセブンイレブン 江東毛利1丁目店\n","Address":"東京都江東区毛利1丁目11-12"},"geometry":{"type":"Point","coordinates":[139.8153314,35.6908825]}},{"type":"Feature","properties":{"Name":"\nセブンイレブン 豊洲3丁目店\n","Address":"東京都江東区豊洲3-1-1"},"geometry":{"type":"Point","coordinates":[139.7937628,35.6593906]}},{"type":"Feature","properties":{"Name":"\nセブンイレブン 江東南砂3丁目公園前店\n","Address":"東京都江東区南砂7-4-1"},"geometry":{"type":"Point","coordinates":[139.8341415,35.6700291]}},{"type":"Feature","properties":{"Name":"\nセブンイレブン AIM日本ヒューレット・パッカ店\n","Address":"東京都江東区大島2丁目2番1号"},"geometry":{"type":"Point","coordinates":[139.8209711,35.691012]}},{"type":"Feature","properties":{"Name":"\nセブンイレブン 北砂3丁目明治通り店\n","Address":"東京都江東区北砂3-3-7"},"geometry":{"type":"Point","coordinates":[139.827159,35.683572]}},{"type":"Feature","properties":{"Name":"\nセブンイレブン 江東木場1丁目店\n","Address":"東京都江東区木場1-5-25"},"geometry":{"type":"Point","coordinates":[139.8048599,35.6667282]}},{"type":"Feature","properties":{"Name":"\nセブンイレブン 江東南砂2丁目店\n","Address":"東京都江東区南砂2-10-12"},"geometry":{"type":"Point","coordinates":[139.8202861,35.6723194]}},{"type":"Feature","properties":{"Name":"\nセブンイレブン 新木場1丁目東店\n","Address":"東京都江東区新木場1-15-12"},"geometry":{"type":"Point","coordinates":[139.835452,35.644566]}},{"type":"Feature","properties":{"Name":"\nセブンイレブン 江東東砂8丁目店\n","Address":"東京都江東区東砂8ー19ー9"},"geometry":{"type":"Point","coordinates":[139.8410071,35.6681343]}},{"type":"Feature","properties":{"Name":"\nセブンイレブン 江東門前仲町店\n","Address":"東京都江東区門前仲町2ー6ー1"},"geometry":{"type":"Point","coordinates":[139.7954207,35.6727883]}},{"type":"Feature","properties":{"Name":"\nセブンイレブン 江東大島5丁目店\n","Address":"東京都江東区大島5-32-5"},"geometry":{"type":"Point","coordinates":[139.8357459,35.6888104]}},{"type":"Feature","properties":{"Name":"\nセブンイレブン 江東南砂7丁目店\n","Address":"東京都江東区南砂7-13-7"},"geometry":{"type":"Point","coordinates":[139.8370554,35.669847]}},{"type":"Feature","properties":{"Name":"\nセブンイレブン 豊洲駅前店\n","Address":"東京都江東区豊洲4-1-24"},"geometry":{"type":"Point","coordinates":[139.7971324,35.6544587]}},{"type":"Feature","properties":{"Name":"\nセブンイレブン 江東亀戸9丁目店\n","Address":"東京都江東区亀戸9-18-10"},"geometry":{"type":"Point","coordinates":[139.8432939,35.6976852]}},{"type":"Feature","properties":{"Name":"\nセブンイレブン 東陽店\n","Address":"東京都江東区東陽3-21-6"},"geometry":{"type":"Point","coordinates":[139.8117689,35.6690302]}},{"type":"Feature","properties":{"Name":"\nセブンイレブン 江東大島8丁目店\n","Address":"東京都江東区大島8-42-11"},"geometry":{"type":"Point","coordinates":[139.8441072,35.6904553]}},{"type":"Feature","properties":{"Name":"\nセブンイレブン 江東南砂1丁目店\n","Address":"東京都江東区南砂1-5-20"},"geometry":{"type":"Point","coordinates":[139.8220449,35.6809269]}},{"type":"Feature","properties":{"Name":"\nセブンイレブン 東雲1丁目店\n","Address":"東京都江東区東雲1丁目2-8-101"},"geometry":{"type":"Point","coordinates":[139.8011307,35.6492538]}},{"type":"Feature","properties":{"Name":"\nセブンイレブン ゆりかもめ豊洲駅店\n","Address":"東京都江東区豊洲2-2"},"geometry":{"type":"Point","coordinates":[139.794926,35.6541958]}},{"type":"Feature","properties":{"Name":"\nセブンイレブン 江東平野2丁目店\n","Address":"東京都江東区平野2丁目12番5"},"geometry":{"type":"Point","coordinates":[139.8036087,35.6773405]}},{"type":"Feature","properties":{"Name":"\nセブンイレブン 江東森下4丁目店\n","Address":"東京都江東区森下4ー15ー7"},"geometry":{"type":"Point","coordinates":[139.8047632,35.6861021]}},{"type":"Feature","properties":{"Name":"\nセブンイレブン 7FS竹中工務店東京本社店\n","Address":"東京都江東区新砂1-1-1"},"geometry":{"type":"Point","coordinates":[139.8200178,35.6682329]}},{"type":"Feature","properties":{"Name":"\nセブンイレブン 亀戸十三間通り店\n","Address":"東京都江東区亀戸2-36-13"},"geometry":{"type":"Point","coordinates":[139.8252174,35.7000289]}},{"type":"Feature","properties":{"Name":"\nセブンイレブン 江東亀戸2丁目店\n","Address":"東京都江東区亀戸2ー17ー14"},"geometry":{"type":"Point","coordinates":[139.8233171,35.6979155]}},{"type":"Feature","properties":{"Name":"\nセブンイレブン 江東辰巳3丁目店\n","Address":"東京都江東区辰巳3丁目8-10"},"geometry":{"type":"Point","coordinates":[139.8123742,35.6427801]}},{"type":"Feature","properties":{"Name":"\nセブンイレブン TFT有明店\n","Address":"東京都江東区有明3-6-11"},"geometry":{"type":"Point","coordinates":[139.790628,35.6308953]}},{"type":"Feature","properties":{"Name":"\nセブンイレブン 江東牡丹1丁目店\n","Address":"東京都江東区牡丹1丁目2ー5"},"geometry":{"type":"Point","coordinates":[139.793443,35.6706859]}},{"type":"Feature","properties":{"Name":"\nセブンイレブン 新木場3丁目店\n","Address":"東京都江東区新木場3-7-9"},"geometry":{"type":"Point","coordinates":[139.8352607,35.6392911]}},{"type":"Feature","properties":{"Name":"\nセブンイレブン 亀戸駅東口店\n","Address":"東京都江東区亀戸6-57-20-1F"},"geometry":{"type":"Point","coordinates":[139.8287176,35.6970208]}},{"type":"Feature","properties":{"Name":"\nセブンイレブン 江東海辺店\n","Address":"東京都江東区海辺2-7"},"geometry":{"type":"Point","coordinates":[139.817963,35.6804969]}},{"type":"Feature","properties":{"Name":"\nセブンイレブン 江東亀戸1丁目店\n","Address":"東京都江東区亀戸1-29-4"},"geometry":{"type":"Point","coordinates":[139.8247443,35.6942203]}},{"type":"Feature","properties":{"Name":"\nセブンイレブン 江東門前仲町1丁目店\n","Address":"東京都江東区門前仲町1-16-1"},"geometry":{"type":"Point","coordinates":[139.7937218,35.6742092]}},{"type":"Feature","properties":{"Name":"\nセブンイレブン 江東東陽5丁目店\n","Address":"東京都江東区東陽5-17-1"},"geometry":{"type":"Point","coordinates":[139.8113602,35.6707863]}},{"type":"Feature","properties":{"Name":"\nセブンイレブン 江東住吉2丁目店\n","Address":"東京都江東区住吉2-7-6"},"geometry":{"type":"Point","coordinates":[139.81524,35.68876789999999]}},{"type":"Feature","properties":{"Name":"\nセブンイレブン 江東新砂3丁目店\n","Address":"東京都江東区新砂3丁目3番53号"},"geometry":{"type":"Point","coordinates":[139.831506,35.6679794]}},{"type":"Feature","properties":{"Name":"\nセブンイレブン 亀戸昭和橋通り店\n","Address":"東京都江東区亀戸6-37-9"},"geometry":{"type":"Point","coordinates":[139.8312484,35.6949539]}},{"type":"Feature","properties":{"Name":"\nセブンイレブン 江東亀戸駅北店\n","Address":"東京都江東区亀戸5-2-3"},"geometry":{"type":"Point","coordinates":[139.8259083,35.6986181]}},{"type":"Feature","properties":{"Name":"\nセブンイレブン 江東扇橋2丁目店\n","Address":"東京都江東区扇橋2-4-5"},"geometry":{"type":"Point","coordinates":[139.8156536,35.6827805]}},{"type":"Feature","properties":{"Name":"\nセブンイレブン 豊洲晴海通り店\n","Address":"東京都江東区豊洲3-2-24"},"geometry":{"type":"Point","coordinates":[139.7949702,35.6575871]}},{"type":"Feature","properties":{"Name":"\nセブンイレブン 江東潮見2丁目店\n","Address":"東京都江東区潮見2-3-10"},"geometry":{"type":"Point","coordinates":[139.8157483,35.6581104]}},{"type":"Feature","properties":{"Name":"\nセブンイレブン 牡丹店\n","Address":"東京都江東区牡丹3-20-4"},"geometry":{"type":"Point","coordinates":[139.8000845,35.6682699]}},{"type":"Feature","properties":{"Name":"\nセブンイレブン 江東千石1丁目店\n","Address":"東京都江東区千石1丁目7-28"},"geometry":{"type":"Point","coordinates":[139.8141069,35.6773768]}},{"type":"Feature","properties":{"Name":"\nセブンイレブン 江東永代2丁目店\n","Address":"東京都江東区永代2-37-28"},"geometry":{"type":"Point","coordinates":[139.7916486,35.674763]}},{"type":"Feature","properties":{"Name":"\nセブンイレブン 江東北砂5丁目店\n","Address":"東京都江東区北砂5-17-35"},"geometry":{"type":"Point","coordinates":[139.835319,35.6827119]}},{"type":"Feature","properties":{"Name":"\nセブンイレブン Iingザ・豊洲タワー店\n","Address":"東京都江東区豊洲3-6-5"},"geometry":{"type":"Point","coordinates":[139.7977038,35.6590046]}},{"type":"Feature","properties":{"Name":"\nセブンイレブン 江東木場公園南店\n","Address":"東京都江東区木場5-8-40"},"geometry":{"type":"Point","coordinates":[139.8086207,35.6709997]}},{"type":"Feature","properties":{"Name":"\nセブンイレブン 江東東陽町駅前店\n","Address":"東京都江東区東陽3-27-18"},"geometry":{"type":"Point","coordinates":[139.8161558,35.6705366]}},{"type":"Feature","properties":{"Name":"\nセブンイレブン 江東枝川2丁目店\n","Address":"東京都江東区枝川2丁目2-8"},"geometry":{"type":"Point","coordinates":[139.8072928,35.659174]}},{"type":"Feature","properties":{"Name":"\nセブンイレブン 江東白河3丁目店\n","Address":"東京都江東区白河3-4-3"},"geometry":{"type":"Point","coordinates":[139.805962,35.6821586]}},{"type":"Feature","properties":{"Name":"\nセブンイレブン 都立墨東病院東店\n","Address":"東京都江東区亀戸1-5-7"},"geometry":{"type":"Point","coordinates":[139.8202132,35.6951669]}},{"type":"Feature","properties":{"Name":"\nセブンイレブン 豊洲店\n","Address":"東京都江東区豊洲4-6-1"},"geometry":{"type":"Point","coordinates":[139.7982254,35.6553717]}},{"type":"Feature","properties":{"Name":"\nセブンイレブン 江東木場3丁目店\n","Address":"東京都江東区木場3-12-5"},"geometry":{"type":"Point","coordinates":[139.8039314,35.6750953]}},{"type":"Feature","properties":{"Name":"\nセブンイレブン 7FS大和総研永代ビル店\n","Address":"東京都江東区永代1-14-6"},"geometry":{"type":"Point","coordinates":[139.7908358,35.6758405]}},{"type":"Feature","properties":{"Name":"\nセブンイレブン 江東東砂1丁目店\n","Address":"東京都江東区東砂1-3-39"},"geometry":{"type":"Point","coordinates":[139.841268,35.6844289]}},{"type":"Feature","properties":{"Name":"\nセブンイレブン ダイバーシティ東京プラザ店\n","Address":"東京都江東区青海1-1-10"},"geometry":{"type":"Point","coordinates":[139.7751123,35.6250135]}},{"type":"Feature","properties":{"Name":"\nセブンイレブン 豊洲5丁目店\n","Address":"東京都江東区豊洲5-6-36"},"geometry":{"type":"Point","coordinates":[139.7980635,35.6521175]}},{"type":"Feature","properties":{"Name":"\nセブンイレブン 江東北砂3丁目店\n","Address":"東京都江東区北砂3-2-2"},"geometry":{"type":"Point","coordinates":[139.8277894,35.6818013]}},{"type":"Feature","properties":{"Name":"\nセブンイレブン 江東区役所前店\n","Address":"東京都江東区東陽5-31-17"},"geometry":{"type":"Point","coordinates":[139.8159866,35.6731238]}},{"type":"Feature","properties":{"Name":"\nセブンイレブン 江東森下駅南店\n","Address":"東京都江東区森下2丁目2-2"},"geometry":{"type":"Point","coordinates":[139.7985897,35.6869259]}},{"type":"Feature","properties":{"Name":"\nセブンイレブン 門前仲町駅西店\n","Address":"東京都江東区永代2丁目31-7"},"geometry":{"type":"Point","coordinates":[139.7930582,35.6737149]}},{"type":"Feature","properties":{"Name":"\nセブンイレブン FR有明店\n","Address":"東京都江東区有明1-6-7"},"geometry":{"type":"Point","coordinates":[139.7790592,35.6372596]}},{"type":"Feature","properties":{"Name":"\nセブンイレブン 江東扇橋店\n","Address":"東京都江東区扇橋1-12-18"},"geometry":{"type":"Point","coordinates":[139.8131318,35.6830775]}},{"type":"Feature","properties":{"Name":"\nセブンイレブン 江東木場駅前店\n","Address":"東京都江東区木場5-11-15"},"geometry":{"type":"Point","coordinates":[139.8083661,35.6696871]}},{"type":"Feature","properties":{"Name":"\nセブンイレブン 江東冬木店\n","Address":"東京都江東区冬木5-1"},"geometry":{"type":"Point","coordinates":[139.8022136,35.6731333]}},{"type":"Feature","properties":{"Name":"\nセブンイレブン 清澄白河駅東店\n","Address":"東京都江東区白河2-17-10"},"geometry":{"type":"Point","coordinates":[139.8035076,35.6825373]}},{"type":"Feature","properties":{"Name":"\nセブンイレブン 大島駅前店\n","Address":"東京都江東区大島6-8-22"},"geometry":{"type":"Point","coordinates":[139.8345139,35.6899381]}},{"type":"Feature","properties":{"Name":"\nセブンイレブン 豊洲1丁目店\n","Address":"東京都江東区豊洲1-2-33"},"geometry":{"type":"Point","coordinates":[139.7933497,35.6607485]}},{"type":"Feature","properties":{"Name":"\nセブンイレブン 江東猿江1丁目店\n","Address":"東京都江東区猿江1-9-10"},"geometry":{"type":"Point","coordinates":[139.8128875,35.6856625]}},{"type":"Feature","properties":{"Name":"\nセブンイレブン 江東亀戸6丁目店\n","Address":"東京都江東区亀戸6-25-5"},"geometry":{"type":"Point","coordinates":[139.8260035,35.695946]}},{"type":"Feature","properties":{"Name":"\nセブンイレブン 江東枝川店\n","Address":"東京都江東区枝川1-3-17"},"geometry":{"type":"Point","coordinates":[139.8034054,35.65887379999999]}},{"type":"Feature","properties":{"Name":"\nセブンイレブン 江東新大橋3丁目店\n","Address":"東京都江東区新大橋3丁目9-9"},"geometry":{"type":"Point","coordinates":[139.7953991,35.68815379999999]}},{"type":"Feature","properties":{"Name":"\nセブンイレブン 江東深川2丁目店\n","Address":"東京都江東区深川2丁目2-24"},"geometry":{"type":"Point","coordinates":[139.7991348,35.6735734]}},{"type":"Feature","properties":{"Name":"\nセブンイレブン 江東西大島駅西店\n","Address":"東京都江東区大島1-8-17"},"geometry":{"type":"Point","coordinates":[139.8229601,35.6891194]}},{"type":"Feature","properties":{"Name":"\nセブンイレブン DR東京有明ダイワロイネットホ店\n","Address":"東京都江東区有明3-7-3"},"geometry":{"type":"Point","coordinates":[139.7927322,35.6344358]}},{"type":"Feature","properties":{"Name":"\nセブンイレブン 江東塩浜2丁目店\n","Address":"東京都江東区塩浜2丁目4番35号"},"geometry":{"type":"Point","coordinates":[139.8037642,35.6622126]}},{"type":"Feature","properties":{"Name":"\nセブンイレブン 江東亀戸7丁目店\n","Address":"東京都江東区亀戸7-43-2"},"geometry":{"type":"Point","coordinates":[139.8342622,35.6966899]}},{"type":"Feature","properties":{"Name":"\nセブンイレブン 江東亀戸7丁目東店\n","Address":"東京都江東区亀戸7丁目39-13"},"geometry":{"type":"Point","coordinates":[139.8398823,35.6970252]}},{"type":"Feature","properties":{"Name":"\nセブンイレブン 江東塩浜店\n","Address":"東京都江東区塩浜2-11-18"},"geometry":{"type":"Point","coordinates":[139.8104104,35.6637092]}},{"type":"Feature","properties":{"Name":"\nセブンイレブン 新木場1丁目店\n","Address":"東京都江東区新木場1-4-7"},"geometry":{"type":"Point","coordinates":[139.8246989,35.6438147]}},{"type":"Feature","properties":{"Name":"\nセブンイレブン 清澄白河駅前店\n","Address":"東京都江東区清澄3-7-7"},"geometry":{"type":"Point","coordinates":[139.7984609,35.6823448]}},{"type":"Feature","properties":{"Name":"\nセブンイレブン TOC有明店\n","Address":"東京都江東区有明3-5-7TOC有明ビル2F"},"geometry":{"type":"Point","coordinates":[139.7890028,35.6326858]}},{"type":"Feature","properties":{"Name":"\nセブンイレブン 江東亀戸駅南店\n","Address":"東京都江東区亀戸6-59-7"},"geometry":{"type":"Point","coordinates":[139.8262181,35.6968028]}},{"type":"Feature","properties":{"Name":"\nセブンイレブン 江東木場駅南店\n","Address":"東京都江東区木場5-1-4"},"geometry":{"type":"Point","coordinates":[139.8059906,35.6690229]}},{"type":"Feature","properties":{"Name":"\nセブンイレブン AIM_LIXIL_WINGビ店\n","Address":"東京都江東区大島2-1-1"},"geometry":{"type":"Point","coordinates":[139.8211196,35.6896454]}},{"type":"Feature","properties":{"Name":"\nニューヤマザキデイリーストア 豊洲青果市場店\n","Address":"東京都江東区豊洲6-3"},"geometry":{"type":"Point","coordinates":[139.787575,35.6457973]}},{"type":"Feature","properties":{"Name":"\nデイリーヤマザキ 門前仲町駅前店\n","Address":"東京都江東区富岡1-6-6"},"geometry":{"type":"Point","coordinates":[139.7971192,35.6710425]}},{"type":"Feature","properties":{"Name":"\nデイリーヤマザキ 丸八通り店\n","Address":"東京都江東区北砂7-4-1"},"geometry":{"type":"Point","coordinates":[139.8348027,35.6787339]}},{"type":"Feature","properties":{"Name":"\nデイリーヤマザキ 東砂3丁目店\n","Address":"東京都江東区東砂3-23-9"},"geometry":{"type":"Point","coordinates":[139.843288,35.677766]}},{"type":"Feature","properties":{"Name":"\nデイリーヤマザキ 江東辰巳3丁目店\n","Address":"東京都江東区辰巳3-11-17"},"geometry":{"type":"Point","coordinates":[139.8168814,35.6427678]}},{"type":"Feature","properties":{"Name":"\nデイリーヤマザキ 江東東砂1丁目店\n","Address":"東京都江東区東砂1-3-6"},"geometry":{"type":"Point","coordinates":[139.8396648,35.6846809]}},{"type":"Feature","properties":{"Name":"\nデイリーヤマザキ 豊洲キュービックG店\n","Address":"東京都江東区豊洲3-2-3"},"geometry":{"type":"Point","coordinates":[139.7941426,35.6583149]}},{"type":"Feature","properties":{"Name":"\nデイリーヤマザキ ブリリアマーレ有明店\n","Address":"東京都江東区有明1-4-11"},"geometry":{"type":"Point","coordinates":[139.7872478,35.6371393]}},{"type":"Feature","properties":{"Name":"\nデイリーヤマザキ 臨海副都心青海店\n","Address":"東京都江東区青海2-2 B-101"},"geometry":{"type":"Point","coordinates":[139.7747597,35.6208485]}},{"type":"Feature","properties":{"Name":"\nデイリーヤマザキ 新木場NECビル店\n","Address":"東京都江東区新木場1-18-7"},"geometry":{"type":"Point","coordinates":[139.8264708,35.6437138]}},{"type":"Feature","properties":{"Name":"\nデイリーヤマザキ 東陽町店\n","Address":"東京都江東区東陽4-11-33"},"geometry":{"type":"Point","coordinates":[139.8164132,35.6737264]}},{"type":"Feature","properties":{"Name":"\nデイリーヤマザキ 江東豊洲駅前店\n","Address":"東京都江東区豊洲5-5-1-102"},"geometry":{"type":"Point","coordinates":[139.796035,35.6536885]}},{"type":"Feature","properties":{"Name":"\nデイリーヤマザキ 豊洲5丁目店\n","Address":"東京都江東区豊洲5-5-18"},"geometry":{"type":"Point","coordinates":[139.797342,35.6530697]}},{"type":"Feature","properties":{"Name":"\nデイリーヤマザキ 江東有明3丁目店\n","Address":"東京都江東区有明3-7-11"},"geometry":{"type":"Point","coordinates":[139.7930471,35.6326822]}},{"type":"Feature","properties":{"Name":"\nデイリーヤマザキ 東陽町駅前店\n","Address":"東京都江東区東陽4-1-13"},"geometry":{"type":"Point","coordinates":[139.8186069,35.6693799]}},{"type":"Feature","properties":{"Name":"\nデイリーヤマザキ 白河店\n","Address":"東京都江東区白河3-1-18"},"geometry":{"type":"Point","coordinates":[139.803908,35.6813257]}},{"type":"Feature","properties":{"Name":"\nデイリーヤマザキ 江東有明1丁目店\n","Address":"東京都江東区有明1-4-29"},"geometry":{"type":"Point","coordinates":[139.7856239,35.6358066]}},{"type":"Feature","properties":{"Name":"\nヒロマルチェーンリカー&ワインかみや\n","Address":"東京都足立区足立2丁目22-3"},"geometry":{"type":"Point","coordinates":[139.8102103,35.760703]}},{"type":"Feature","properties":{"Name":"\nタウンショップシライ\n","Address":"東京都足立区綾瀬2丁目12-10"},"geometry":{"type":"Point","coordinates":[139.8281567,35.7590696]}},{"type":"Feature","properties":{"Name":"\n松屋\n","Address":"東京都足立区保木間1丁目34-5"},"geometry":{"type":"Point","coordinates":[139.8090113,35.7906556]}},{"type":"Feature","properties":{"Name":"\nオルハテック\n","Address":"東京都足立区新田1丁目12-1"},"geometry":{"type":"Point","coordinates":[139.7400751,35.7743202]}},{"type":"Feature","properties":{"Name":"\nサワヤ\n","Address":"東京都足立区西保木間3丁目1-18"},"geometry":{"type":"Point","coordinates":[139.8013555,35.8031098]}},{"type":"Feature","properties":{"Name":"\nベアーズアリタ\n","Address":"東京都足立区西新井7丁目13-11"},"geometry":{"type":"Point","coordinates":[139.7722494,35.7803426]}},{"type":"Feature","properties":{"Name":"\nミニショップロビン\n","Address":"東京都足立区平野1丁目19-12"},"geometry":{"type":"Point","coordinates":[139.806214,35.7810044]}},{"type":"Feature","properties":{"Name":"\nミノヤ食品ストアー\n","Address":"東京都足立区興野1丁目10-5"},"geometry":{"type":"Point","coordinates":[139.7811444,35.7708794]}},{"type":"Feature","properties":{"Name":"\nNEWDAYSMINI(ニューデイズミニ) 北千住1号店\n","Address":"東京都足立区千住旭町42 北千住駅北口改札内"},"geometry":{"type":"Point","coordinates":[139.8054795,35.7493281]}},{"type":"Feature","properties":{"Name":"\nコンビニエンス・ライフ\n","Address":"東京都足立区保塚町5-11"},"geometry":{"type":"Point","coordinates":[139.8145763,35.78579149999999]}},{"type":"Feature","properties":{"Name":"\nモンマート もちづき\n","Address":"東京都足立区西新井1-37-6"},"geometry":{"type":"Point","coordinates":[139.7816952,35.7824466]}},{"type":"Feature","properties":{"Name":"\nヤマザキYショップ等潤病院売店\n","Address":"東京都足立区一ツ家4-3-4"},"geometry":{"type":"Point","coordinates":[139.816951,35.7791567]}},{"type":"Feature","properties":{"Name":"\nローソン 竹の塚四丁目店\n","Address":"東京都足立区竹の塚4-9-5"},"geometry":{"type":"Point","coordinates":[139.799447,35.7942033]}},{"type":"Feature","properties":{"Name":"\nローソン 千住寿町店\n","Address":"東京都足立区千住寿町26-8"},"geometry":{"type":"Point","coordinates":[139.79862,35.7551719]}},{"type":"Feature","properties":{"Name":"\nローソン 千住旭町店\n","Address":"東京都足立区千住旭町40-6"},"geometry":{"type":"Point","coordinates":[139.8065894,35.7503161]}},{"type":"Feature","properties":{"Name":"\nローソン 千住中居町店\n","Address":"東京都足立区千住中居町    12-22"},"geometry":{"type":"Point","coordinates":[139.7975231,35.7491124]}},{"type":"Feature","properties":{"Name":"\nローソン 足立六町駅前店\n","Address":"東京都足立区六町1-17-29"},"geometry":{"type":"Point","coordinates":[139.8215025,35.7839938]}},{"type":"Feature","properties":{"Name":"\nローソン 竹の塚二丁目店\n","Address":"東京都足立区竹の塚2-3-3"},"geometry":{"type":"Point","coordinates":[139.7961597,35.7886408]}},{"type":"Feature","properties":{"Name":"\nローソン 花畑六丁目店\n","Address":"東京都足立区花畑6-13-20"},"geometry":{"type":"Point","coordinates":[139.8172957,35.8066316]}},{"type":"Feature","properties":{"Name":"\nローソン 谷在家駅前店\n","Address":"東京都足立区谷在家1-23-10"},"geometry":{"type":"Point","coordinates":[139.7705043,35.7895331]}},{"type":"Feature","properties":{"Name":"\nローソン 興野一丁目店\n","Address":"東京都足立区興野1-9-8"},"geometry":{"type":"Point","coordinates":[139.7812757,35.7715524]}},{"type":"Feature","properties":{"Name":"\nローソン 舎人一丁目店\n","Address":"東京都足立区舎人1-15-8"},"geometry":{"type":"Point","coordinates":[139.7705325,35.8052503]}},{"type":"Feature","properties":{"Name":"\nローソン 足立扇三丁目店\n","Address":"東京都足立区扇3-3-8"},"geometry":{"type":"Point","coordinates":[139.7710826,35.766975]}},{"type":"Feature","properties":{"Name":"\nローソン 足立佐野一丁目店\n","Address":"東京都足立区佐野1-19-1"},"geometry":{"type":"Point","coordinates":[139.842369,35.7851306]}},{"type":"Feature","properties":{"Name":"\nローソン 花畑三丁目店\n","Address":"東京都足立区花畑3-9-4"},"geometry":{"type":"Point","coordinates":[139.8104301,35.8019932]}},{"type":"Feature","properties":{"Name":"\nローソン 舎人公園東店\n","Address":"東京都足立区古千谷本町1-4-1"},"geometry":{"type":"Point","coordinates":[139.7771228,35.8012794]}},{"type":"Feature","properties":{"Name":"\nローソン 西保木間二丁目店\n","Address":"東京都足立区西保木間2-10-1"},"geometry":{"type":"Point","coordinates":[139.7992035,35.80046540000001]}},{"type":"Feature","properties":{"Name":"\nローソン 西綾瀬三丁目店\n","Address":"東京都足立区西綾瀬3-17-10"},"geometry":{"type":"Point","coordinates":[139.8184019,35.7639552]}},{"type":"Feature","properties":{"Name":"\nローソン 足立一ツ家一丁目店\n","Address":"東京都足立区一ツ家1-3-16"},"geometry":{"type":"Point","coordinates":[139.8105819,35.7792978]}},{"type":"Feature","properties":{"Name":"\nローソン 北千住駅西口店\n","Address":"東京都足立区千住2-61"},"geometry":{"type":"Point","coordinates":[139.804038,35.749632]}},{"type":"Feature","properties":{"Name":"\nローソン 保木間三丁目店\n","Address":"東京都足立区保木間3-21-12"},"geometry":{"type":"Point","coordinates":[139.8089147,35.7951093]}},{"type":"Feature","properties":{"Name":"\nローソン 足立新田一丁目店\n","Address":"東京都足立区新田1-2-18"},"geometry":{"type":"Point","coordinates":[139.738038,35.772404]}},{"type":"Feature","properties":{"Name":"\nローソン 足立神明南店\n","Address":"東京都足立区神明南1-13-10"},"geometry":{"type":"Point","coordinates":[139.830862,35.790052]}},{"type":"Feature","properties":{"Name":"\nローソン 千住桜木一丁目店\n","Address":"東京都足立区千住桜木1-15-9"},"geometry":{"type":"Point","coordinates":[139.7913685,35.7539771]}},{"type":"Feature","properties":{"Name":"\nローソン 西新井大師前店\n","Address":"東京都足立区西新井1-2-4"},"geometry":{"type":"Point","coordinates":[139.7816971,35.7786166]}},{"type":"Feature","properties":{"Name":"\nローソン 大谷田店\n","Address":"東京都足立区大谷田3-1-22"},"geometry":{"type":"Point","coordinates":[139.8392671,35.7770307]}},{"type":"Feature","properties":{"Name":"\nローソン 足立谷在家店\n","Address":"東京都足立区谷在家3-19-12"},"geometry":{"type":"Point","coordinates":[139.7696988,35.7880765]}},{"type":"Feature","properties":{"Name":"\nローソン 足立一ツ家店\n","Address":"東京都足立区一ツ家2-23-7"},"geometry":{"type":"Point","coordinates":[139.8161753,35.7843019]}},{"type":"Feature","properties":{"Name":"\nローソン 綾瀬中央通り店\n","Address":"東京都足立区綾瀬5-16-9"},"geometry":{"type":"Point","coordinates":[139.8272012,35.7686137]}},{"type":"Feature","properties":{"Name":"\nローソン 江北六丁目店\n","Address":"東京都足立区江北6-30-20"},"geometry":{"type":"Point","coordinates":[139.7697606,35.782614]}},{"type":"Feature","properties":{"Name":"\nローソン 大谷田五丁目店\n","Address":"東京都足立区大谷田5-3-2"},"geometry":{"type":"Point","coordinates":[139.837098,35.783207]}},{"type":"Feature","properties":{"Name":"\nローソン 伊興本町二丁目店\n","Address":"東京都足立区伊興本町2-7-14"},"geometry":{"type":"Point","coordinates":[139.7873466,35.8009718]}},{"type":"Feature","properties":{"Name":"\nローソン 花畑一丁目店\n","Address":"東京都足立区花畑1-6-7"},"geometry":{"type":"Point","coordinates":[139.8102392,35.7990526]}},{"type":"Feature","properties":{"Name":"\nローソン 博慈会記念総合病院店\n","Address":"東京都足立区鹿浜5-11-1"},"geometry":{"type":"Point","coordinates":[139.749775,35.7850821]}},{"type":"Feature","properties":{"Name":"\nローソン 足立竹ノ塚一丁目店\n","Address":"東京都足立区竹の塚1-26-14"},"geometry":{"type":"Point","coordinates":[139.7907311,35.7918382]}},{"type":"Feature","properties":{"Name":"\nローソン 足立栗原一丁目店\n","Address":"東京都足立区栗原1-5-4"},"geometry":{"type":"Point","coordinates":[139.7898368,35.7803321]}},{"type":"Feature","properties":{"Name":"\nローソン 足立六月一丁目店\n","Address":"東京都足立区六月1-16-12"},"geometry":{"type":"Point","coordinates":[139.801354,35.787001]}},{"type":"Feature","properties":{"Name":"\nローソン 足立伊興四丁目店\n","Address":"東京都足立区伊興4-6-2"},"geometry":{"type":"Point","coordinates":[139.7858427,35.7960812]}},{"type":"Feature","properties":{"Name":"\nローソン 足立谷中五丁目店\n","Address":"東京都足立区谷中5-1-1"},"geometry":{"type":"Point","coordinates":[139.8333901,35.7817679]}},{"type":"Feature","properties":{"Name":"\nローソン 足立東和四丁目店\n","Address":"東京都足立区東和4-5-16"},"geometry":{"type":"Point","coordinates":[139.8444844,35.7714095]}},{"type":"Feature","properties":{"Name":"\nローソンストア100 LS北綾瀬駅前店\n","Address":"東京都足立区谷中4-9-22"},"geometry":{"type":"Point","coordinates":[139.8324827,35.7775757]}},{"type":"Feature","properties":{"Name":"\nローソンストア100 LS足立鹿浜店\n","Address":"東京都足立区鹿浜7-12-20"},"geometry":{"type":"Point","coordinates":[139.7645676,35.7835846]}},{"type":"Feature","properties":{"Name":"\nローソンストア100 伊興本町店\n","Address":"東京都足立区伊興本町1-13-11 バニーズビル"},"geometry":{"type":"Point","coordinates":[139.7856648,35.7994071]}},{"type":"Feature","properties":{"Name":"\nローソンストア100 LS千住新橋店\n","Address":"東京都足立区足立1-11-5松伝ビル"},"geometry":{"type":"Point","coordinates":[139.8040761,35.764071]}},{"type":"Feature","properties":{"Name":"\nローソンストア100 LS足立栗原店\n","Address":"東京都足立区栗原4-5-1いそがひファーストビル"},"geometry":{"type":"Point","coordinates":[139.7856176,35.7834091]}},{"type":"Feature","properties":{"Name":"\nローソンストア100 LS足立大谷田店\n","Address":"東京都足立区大谷田4-15-7"},"geometry":{"type":"Point","coordinates":[139.8393722,35.7802811]}},{"type":"Feature","properties":{"Name":"\nローソンストア100 西保木間店\n","Address":"東京都足立区西保木間2-5-5"},"geometry":{"type":"Point","coordinates":[139.7978627,35.7989441]}},{"type":"Feature","properties":{"Name":"\nローソンストア100 LS足立東和五丁目店\n","Address":"東京都足立区東和5-5-21"},"geometry":{"type":"Point","coordinates":[139.8414271,35.7754488]}},{"type":"Feature","properties":{"Name":"\nローソンストア100 LS千住中居町店\n","Address":"東京都足立区千住中居町18-14白石ビル"},"geometry":{"type":"Point","coordinates":[139.7996008,35.7505904]}},{"type":"Feature","properties":{"Name":"\nローソンストア100 LS足立皿沼店\n","Address":"東京都足立区皿沼1-9-6アーバンスクエア皿沼"},"geometry":{"type":"Point","coordinates":[139.7621132,35.7920179]}},{"type":"Feature","properties":{"Name":"\nローソンストア100 LS綾瀬三丁目店\n","Address":"東京都足立区綾瀬3-26-16"},"geometry":{"type":"Point","coordinates":[139.8277589,35.7646394]}},{"type":"Feature","properties":{"Name":"\nローソンストア100 LS梅島駅前店\n","Address":"東京都足立区梅田7-36-2"},"geometry":{"type":"Point","coordinates":[139.7976629,35.7720932]}},{"type":"Feature","properties":{"Name":"\nローソンストア100 LS足立綾瀬二丁目店\n","Address":"東京都足立区綾瀬2-28-4"},"geometry":{"type":"Point","coordinates":[139.8283066,35.7622383]}},{"type":"Feature","properties":{"Name":"\nローソンストア100 LS千住寿町店\n","Address":"東京都足立区千住寿町23-7シルバーコート"},"geometry":{"type":"Point","coordinates":[139.7981624,35.7539577]}},{"type":"Feature","properties":{"Name":"\nローソンストア100 LS亀有東和店\n","Address":"東京都足立区東和2-17-10"},"geometry":{"type":"Point","coordinates":[139.8448804,35.7693356]}},{"type":"Feature","properties":{"Name":"\nローソンストア100 LS千住桜木二丁目店\n","Address":"東京都足立区千住桜木2-5-6"},"geometry":{"type":"Point","coordinates":[139.7904376,35.7551635]}},{"type":"Feature","properties":{"Name":"\nローソン メトロス綾瀬東口店\n","Address":"東京都足立区綾瀬3-1-1千代田線綾瀬駅構内"},"geometry":{"type":"Point","coordinates":[139.8259981,35.7622573]}},{"type":"Feature","properties":{"Name":"\nローソン 足立加平二丁目店\n","Address":"東京都足立区加平2-19-1"},"geometry":{"type":"Point","coordinates":[139.8268023,35.7810667]}},{"type":"Feature","properties":{"Name":"\nローソン 足立中央本町五丁目店\n","Address":"東京都足立区中央本町5-7-12"},"geometry":{"type":"Point","coordinates":[139.806219,35.7772343]}},{"type":"Feature","properties":{"Name":"\nローソン 足立千住二丁目店\n","Address":"東京都足立区千住2-62-12"},"geometry":{"type":"Point","coordinates":[139.8035283,35.7490435]}},{"type":"Feature","properties":{"Name":"\nローソン 足立加平インター店\n","Address":"東京都足立区西加平1-2-50"},"geometry":{"type":"Point","coordinates":[139.8224335,35.7783734]}},{"type":"Feature","properties":{"Name":"\nローソン 足立六町四丁目店\n","Address":"東京都足立区六町4-2-28"},"geometry":{"type":"Point","coordinates":[139.8213181,35.78554130000001]}},{"type":"Feature","properties":{"Name":"\nローソン 竹ノ塚駅東店\n","Address":"東京都足立区竹ノ塚6-9-7"},"geometry":{"type":"Point","coordinates":[139.7930829,35.7945278]}},{"type":"Feature","properties":{"Name":"\nローソン 足立梅島二丁目店\n","Address":"東京都足立区梅島2-38-12"},"geometry":{"type":"Point","coordinates":[139.798393,35.778243]}},{"type":"Feature","properties":{"Name":"\nローソンストア100 足立竹の塚七丁目店\n","Address":"東京都足立区竹の塚7-20-6"},"geometry":{"type":"Point","coordinates":[139.7951658,35.8003888]}},{"type":"Feature","properties":{"Name":"\nローソン・スリーエフ 足立千住河原町店\n","Address":"東京都足立区千住河原町19-8"},"geometry":{"type":"Point","coordinates":[139.7996066,35.7436535]}},{"type":"Feature","properties":{"Name":"\nローソン 足立西新井五丁目店\n","Address":"東京都足立区西新井5-30-11"},"geometry":{"type":"Point","coordinates":[139.7728665,35.78520049999999]}},{"type":"Feature","properties":{"Name":"\nローソン 足立谷在家二丁目店\n","Address":"東京都足立区谷在家2-12-1"},"geometry":{"type":"Point","coordinates":[139.7656872,35.7834751]}},{"type":"Feature","properties":{"Name":"\nローソン 足立江北七丁目店\n","Address":"東京都足立区江北7-6-7"},"geometry":{"type":"Point","coordinates":[139.7624475,35.7785737]}},{"type":"Feature","properties":{"Name":"\nローソンストア100 LS足立綾瀬六丁目店\n","Address":"東京都足立区綾瀬6-16-16"},"geometry":{"type":"Point","coordinates":[139.8251399,35.7705033]}},{"type":"Feature","properties":{"Name":"\nローソンストア100 LS足立西新井四丁目店\n","Address":"東京都足立区西新井4-14-3"},"geometry":{"type":"Point","coordinates":[139.7747669,35.7858519]}},{"type":"Feature","properties":{"Name":"\nファミリーマート 亀山西新井本町店\n","Address":"東京都足立区西新井本町2-8-11"},"geometry":{"type":"Point","coordinates":[139.774552,35.7762978]}},{"type":"Feature","properties":{"Name":"\nファミリーマート 田口屋西新井大師店\n","Address":"東京都足立区西新井1-8-2"},"geometry":{"type":"Point","coordinates":[139.7793262,35.77864599999999]}},{"type":"Feature","properties":{"Name":"\nファミリーマート 堀之内一丁目店\n","Address":"東京都足立区堀之内1-17-19"},"geometry":{"type":"Point","coordinates":[139.7565184,35.77526539999999]}},{"type":"Feature","properties":{"Name":"\nファミリーマート 本木東町店\n","Address":"東京都足立区本木東町5-2"},"geometry":{"type":"Point","coordinates":[139.7814039,35.7646264]}},{"type":"Feature","properties":{"Name":"\nファミリーマート 千住三丁目店\n","Address":"東京都足立区千住3-1"},"geometry":{"type":"Point","coordinates":[139.8005262,35.7513222]}},{"type":"Feature","properties":{"Name":"\nファミリーマート タジマ千住元町店\n","Address":"東京都足立区千住元町23-4"},"geometry":{"type":"Point","coordinates":[139.7913095,35.7551716]}},{"type":"Feature","properties":{"Name":"\nファミリーマート 牛田関屋駅前店\n","Address":"東京都足立区千住曙町2-7"},"geometry":{"type":"Point","coordinates":[139.8114679,35.7442009]}},{"type":"Feature","properties":{"Name":"\nファミリーマート 綾瀬駅前店\n","Address":"東京都足立区綾瀬3-2-1"},"geometry":{"type":"Point","coordinates":[139.8241993,35.7624312]}},{"type":"Feature","properties":{"Name":"\nファミリーマート 西伊興四丁目店\n","Address":"東京都足立区西伊興4-7-19"},"geometry":{"type":"Point","coordinates":[139.7808107,35.8042118]}},{"type":"Feature","properties":{"Name":"\nファミリーマート 六町駅前店\n","Address":"東京都足立区六町4-3-5"},"geometry":{"type":"Point","coordinates":[139.8222999,35.785991]}},{"type":"Feature","properties":{"Name":"\nファミリーマート 南花畑店\n","Address":"東京都足立区南花畑2-36-17"},"geometry":{"type":"Point","coordinates":[139.8218297,35.7915289]}},{"type":"Feature","properties":{"Name":"\nファミリーマート 加平三丁目店\n","Address":"東京都足立区加平3-9-18"},"geometry":{"type":"Point","coordinates":[139.8299657,35.7798098]}},{"type":"Feature","properties":{"Name":"\nファミリーマート 南花畑車検場通り店\n","Address":"東京都足立区南花畑2-42-3"},"geometry":{"type":"Point","coordinates":[139.8173266,35.7921369]}},{"type":"Feature","properties":{"Name":"\nファミリーマート 保木間五丁目店\n","Address":"東京都足立区保木間5-11-25"},"geometry":{"type":"Point","coordinates":[139.8048987,35.8007787]}},{"type":"Feature","properties":{"Name":"\nファミリーマート 西新井二丁目店\n","Address":"東京都足立区西新井2丁目20番5号"},"geometry":{"type":"Point","coordinates":[139.7795405,35.78434860000001]}},{"type":"Feature","properties":{"Name":"\nファミリーマート 南花畑四丁目店\n","Address":"東京都足立区南花畑4丁目21-1"},"geometry":{"type":"Point","coordinates":[139.8197331,35.7968302]}},{"type":"Feature","properties":{"Name":"\nファミリーマート TX北千住駅店\n","Address":"東京都足立区千住旭町42-3"},"geometry":{"type":"Point","coordinates":[139.8043958,35.7485676]}},{"type":"Feature","properties":{"Name":"\nファミリーマート 堀之内一丁目店\n","Address":"東京都足立区堀之内1-17-19"},"geometry":{"type":"Point","coordinates":[139.7565184,35.77526539999999]}},{"type":"Feature","properties":{"Name":"\nファミリーマート 六木四丁目店\n","Address":"東京都足立区六木4丁目5番1号"},"geometry":{"type":"Point","coordinates":[139.8385672,35.794959]}},{"type":"Feature","properties":{"Name":"\nファミリーマート 皿沼二丁目店\n","Address":"東京都足立区皿沼2丁目19-2"},"geometry":{"type":"Point","coordinates":[139.7673777,35.7906278]}},{"type":"Feature","properties":{"Name":"\nファミリーマート 足立西竹の塚一丁目店\n","Address":"東京都足立区西竹の塚1丁目6-7"},"geometry":{"type":"Point","coordinates":[139.7868789,35.7903483]}},{"type":"Feature","properties":{"Name":"\nファミリーマート 梅田四丁目店\n","Address":"東京都足立区梅田4丁目29-14"},"geometry":{"type":"Point","coordinates":[139.7918697,35.7629606]}},{"type":"Feature","properties":{"Name":"\nファミリーマート 小台二丁目店\n","Address":"東京都足立区小台2-17-10"},"geometry":{"type":"Point","coordinates":[139.7620526,35.7568335]}},{"type":"Feature","properties":{"Name":"\nファミリーマート 千住河原町墨堤通り店\n","Address":"東京都足立区千住河原町6-16"},"geometry":{"type":"Point","coordinates":[139.7965607,35.744825]}},{"type":"Feature","properties":{"Name":"\nファミリーマート 竹ノ塚駅西店\n","Address":"東京都足立区西竹の塚1-15-5"},"geometry":{"type":"Point","coordinates":[139.788039,35.7940573]}},{"type":"Feature","properties":{"Name":"\nファミリーマート 新田一丁目店\n","Address":"東京都足立区新田1丁目18-1 TMコーポ"},"geometry":{"type":"Point","coordinates":[139.7386381,35.7753551]}},{"type":"Feature","properties":{"Name":"\nファミリーマート 鹿浜二丁目店\n","Address":"東京都足立区鹿浜2-25-1"},"geometry":{"type":"Point","coordinates":[139.7508317,35.7800703]}},{"type":"Feature","properties":{"Name":"\nファミリーマート エキア西新井店\n","Address":"東京都足立区西新井栄町2丁目1-1"},"geometry":{"type":"Point","coordinates":[139.7898921,35.7772034]}},{"type":"Feature","properties":{"Name":"\nファミリーマート 東保木間二丁目店\n","Address":"東京都足立区東保木間2丁目4-4"},"geometry":{"type":"Point","coordinates":[139.8106314,35.7942666]}},{"type":"Feature","properties":{"Name":"\nファミリーマート 六木二丁目店\n","Address":"東京都足立区六木2丁目6-8"},"geometry":{"type":"Point","coordinates":[139.8409156,35.7923608]}},{"type":"Feature","properties":{"Name":"\nファミリーマート 西新井栄町一丁目店\n","Address":"東京都足立区西新井栄町1丁目22-6"},"geometry":{"type":"Point","coordinates":[139.784862,35.7756948]}},{"type":"Feature","properties":{"Name":"\nファミリーマート 島根二丁目店\n","Address":"東京都足立区島根2丁目13-11"},"geometry":{"type":"Point","coordinates":[139.7994786,35.782762]}},{"type":"Feature","properties":{"Name":"\nファミリーマート 入谷三丁目店\n","Address":"東京都足立区入谷3丁目3番1号"},"geometry":{"type":"Point","coordinates":[139.7628331,35.8107252]}},{"type":"Feature","properties":{"Name":"\nファミリーマート 新田三丁目店\n","Address":"東京都足立区新田3丁目17番6号"},"geometry":{"type":"Point","coordinates":[139.7442005,35.7715049]}},{"type":"Feature","properties":{"Name":"\nファミリーマート 綾瀬駅東口店\n","Address":"東京都足立区綾瀬3丁目1-16"},"geometry":{"type":"Point","coordinates":[139.8265756,35.762325]}},{"type":"Feature","properties":{"Name":"\nファミリーマート 足立宮城一丁目店\n","Address":"東京都足立区宮城1丁目28-20"},"geometry":{"type":"Point","coordinates":[139.7575383,35.7594837]}},{"type":"Feature","properties":{"Name":"\nファミリーマート 江北二丁目店\n","Address":"東京都足立区江北2丁目14番15号"},"geometry":{"type":"Point","coordinates":[139.7654123,35.7700945]}},{"type":"Feature","properties":{"Name":"\nファミリーマート 加平一丁目店\n","Address":"東京都足立区加平1-20-18"},"geometry":{"type":"Point","coordinates":[139.8297,35.774333]}},{"type":"Feature","properties":{"Name":"\nファミリーマート 足立入谷八丁目店\n","Address":"東京都足立区入谷8-1-35"},"geometry":{"type":"Point","coordinates":[139.7592931,35.8037328]}},{"type":"Feature","properties":{"Name":"\nファミリーマート 北千住駅東口店\n","Address":"東京都足立区千住旭町40-21"},"geometry":{"type":"Point","coordinates":[139.8076357,35.7494661]}},{"type":"Feature","properties":{"Name":"\nファミリーマート 綾瀬二丁目店\n","Address":"東京都足立区綾瀬2-18-10"},"geometry":{"type":"Point","coordinates":[139.8267523,35.7609258]}},{"type":"Feature","properties":{"Name":"\nファミリーマート 加平インター店\n","Address":"東京都足立区加平1-8-5"},"geometry":{"type":"Point","coordinates":[139.8261993,35.7753822]}},{"type":"Feature","properties":{"Name":"\nファミリーマート 大谷田三丁目店\n","Address":"東京都足立区大谷田3-6-15"},"geometry":{"type":"Point","coordinates":[139.8429534,35.7780612]}},{"type":"Feature","properties":{"Name":"\nファミリーマート 足立中央本町四丁目店\n","Address":"東京都足立区中央本町4丁目11-36"},"geometry":{"type":"Point","coordinates":[139.8077299,35.7738914]}},{"type":"Feature","properties":{"Name":"\nファミリーマート 千住曙町店\n","Address":"東京都足立区千住曙町41-2-109"},"geometry":{"type":"Point","coordinates":[139.8128999,35.7426629]}},{"type":"Feature","properties":{"Name":"\nファミリーマート エキア北千住店\n","Address":"東京都足立区千住 旭町42-1"},"geometry":{"type":"Point","coordinates":[139.8053948,35.7495774]}},{"type":"Feature","properties":{"Name":"\nファミリーマート ポンテポルタ千住店\n","Address":"東京都足立区千住 橋戸町1-13 ポンテポルタ千住"},"geometry":{"type":"Point","coordinates":[139.7954607,35.7424425]}},{"type":"Feature","properties":{"Name":"\nファミリーマート 西新井駅東口店\n","Address":"東京都足立区梅島3丁目32番6号"},"geometry":{"type":"Point","coordinates":[139.7908389,35.7772326]}},{"type":"Feature","properties":{"Name":"\nファミリーマート 足立舎人一丁目店\n","Address":"東京都足立区舎人1丁目18-18"},"geometry":{"type":"Point","coordinates":[139.7698075,35.80852420000001]}},{"type":"Feature","properties":{"Name":"\nファミリーマート 足立谷中二丁目店\n","Address":"東京都足立区谷中2-7-7"},"geometry":{"type":"Point","coordinates":[139.8327662,35.7772308]}},{"type":"Feature","properties":{"Name":"\nファミリーマート 江北三丁目店\n","Address":"東京都足立区江北3-36-10"},"geometry":{"type":"Point","coordinates":[139.7627306,35.7778783]}},{"type":"Feature","properties":{"Name":"\nファミリーマート 足立東綾瀬一丁目店\n","Address":"東京都足立区東綾瀬1丁目14-9"},"geometry":{"type":"Point","coordinates":[139.8344953,35.7643895]}},{"type":"Feature","properties":{"Name":"\nファミリーマート 西新井三丁目店\n","Address":"東京都足立区西新井3丁目6番10号・11号"},"geometry":{"type":"Point","coordinates":[139.781761,35.787317]}},{"type":"Feature","properties":{"Name":"\nファミリーマート 東綾瀬一丁目店\n","Address":"東京都足立区東綾瀬1-3-2"},"geometry":{"type":"Point","coordinates":[139.8310214,35.7635263]}},{"type":"Feature","properties":{"Name":"\nファミリーマート 北綾瀬駅前店\n","Address":"東京都足立区谷中2-5-10"},"geometry":{"type":"Point","coordinates":[139.8314706,35.777204]}},{"type":"Feature","properties":{"Name":"\nファミリーマート 島根四丁目店\n","Address":"東京都足立区島根4-13ー3"},"geometry":{"type":"Point","coordinates":[139.7927902,35.7826169]}},{"type":"Feature","properties":{"Name":"\nファミリーマート 梅島駅前店\n","Address":"東京都足立区梅島3丁目1番7号"},"geometry":{"type":"Point","coordinates":[139.797381,35.7729255]}},{"type":"Feature","properties":{"Name":"\nファミリーマート 足立綾瀬西口店\n","Address":"東京都足立区綾瀬4-7-3"},"geometry":{"type":"Point","coordinates":[139.823646,35.7623105]}},{"type":"Feature","properties":{"Name":"\nファミリーマート 千住あずま店\n","Address":"東京都足立区千住東2丁目19-1"},"geometry":{"type":"Point","coordinates":[139.8086096,35.7455495]}},{"type":"Feature","properties":{"Name":"\nファミリーマート 足立五反野店\n","Address":"東京都足立区弘道1丁目14-2"},"geometry":{"type":"Point","coordinates":[139.8096405,35.7678487]}},{"type":"Feature","properties":{"Name":"\nファミリーマート 足立東和店\n","Address":"東京都足立区東和4-25-1"},"geometry":{"type":"Point","coordinates":[139.8432423,35.7743518]}},{"type":"Feature","properties":{"Name":"\nファミリーマート 足立青井店\n","Address":"東京都足立区青井1-2-15"},"geometry":{"type":"Point","coordinates":[139.8112268,35.77182760000001]}},{"type":"Feature","properties":{"Name":"\nファミリーマート 足立綾瀬三丁目店\n","Address":"東京都足立区綾瀬3丁目26番9"},"geometry":{"type":"Point","coordinates":[139.8283365,35.7647945]}},{"type":"Feature","properties":{"Name":"\nファミリーマート 足立竹の塚二丁目店\n","Address":"東京都足立区竹の塚2-29-10"},"geometry":{"type":"Point","coordinates":[139.7965695,35.7926823]}},{"type":"Feature","properties":{"Name":"\nファミリーマート 足立東綾瀬公園店\n","Address":"東京都足立区東綾瀬3丁目3-13"},"geometry":{"type":"Point","coordinates":[139.8309488,35.7704098]}},{"type":"Feature","properties":{"Name":"\nファミリーマート 足立五反野駅前店\n","Address":"東京都足立区足立3丁目33番2"},"geometry":{"type":"Point","coordinates":[139.8089202,35.7656335]}},{"type":"Feature","properties":{"Name":"\nファミリーマート 足立鹿浜店\n","Address":"東京都足立区鹿浜5-21-20"},"geometry":{"type":"Point","coordinates":[139.7562044,35.7858697]}},{"type":"Feature","properties":{"Name":"\nファミリーマート 足立平野店\n","Address":"東京都足立区平野3-3-6"},"geometry":{"type":"Point","coordinates":[139.8067269,35.7825861]}},{"type":"Feature","properties":{"Name":"\nファミリーマート 北千住駅西口店\n","Address":"東京都足立区千住2丁目61"},"geometry":{"type":"Point","coordinates":[139.804038,35.749632]}},{"type":"Feature","properties":{"Name":"\nファミリーマート 綾瀬西口店\n","Address":"東京都足立区綾瀬4丁目6-13"},"geometry":{"type":"Point","coordinates":[139.8231024,35.7619852]}},{"type":"Feature","properties":{"Name":"\nファミリーマート 千住警察署前店\n","Address":"東京都足立区千住仲町41-1"},"geometry":{"type":"Point","coordinates":[139.8034418,35.7465583]}},{"type":"Feature","properties":{"Name":"\nコミュニティ・ストア 入谷 やまざきや店\n","Address":"東京都足立区入谷2-24-14"},"geometry":{"type":"Point","coordinates":[139.7632971,35.8111281]}},{"type":"Feature","properties":{"Name":"\nコミュニティ・ストア 梅田7丁目 やまだや店\n","Address":"東京都足立区梅田7-17-11"},"geometry":{"type":"Point","coordinates":[139.7976719,35.7703961]}},{"type":"Feature","properties":{"Name":"\nミニストップ 北千住店\n","Address":"東京都足立区千住3-56"},"geometry":{"type":"Point","coordinates":[139.803211,35.752459]}},{"type":"Feature","properties":{"Name":"\nミニストップ 辰沼店\n","Address":"東京都足立区辰沼2-15-7"},"geometry":{"type":"Point","coordinates":[139.8335634,35.7908107]}},{"type":"Feature","properties":{"Name":"\nミニストップ 千住仲町店\n","Address":"東京都足立区千住仲町18-6"},"geometry":{"type":"Point","coordinates":[139.800135,35.7465129]}},{"type":"Feature","properties":{"Name":"\nミニストップ 鹿浜4丁目店\n","Address":"東京都足立区鹿浜4丁目28-2"},"geometry":{"type":"Point","coordinates":[139.7592303,35.7833108]}},{"type":"Feature","properties":{"Name":"\nミニストップ 南花畑2丁目店\n","Address":"東京都足立区南花畑2丁目14番16号"},"geometry":{"type":"Point","coordinates":[139.8204269,35.7892413]}},{"type":"Feature","properties":{"Name":"\nミニストップ 足立鹿浜店\n","Address":"東京都足立区鹿浜5-15-10"},"geometry":{"type":"Point","coordinates":[139.7521642,35.7854712]}},{"type":"Feature","properties":{"Name":"\nミニストップ 東和2丁目店\n","Address":"東京都足立区東和2-2-1"},"geometry":{"type":"Point","coordinates":[139.8417315,35.766427]}},{"type":"Feature","properties":{"Name":"\nミニストップ ピーアークスタジオ店\n","Address":"東京都足立区竹の塚1丁目41番3"},"geometry":{"type":"Point","coordinates":[139.7909632,35.7938863]}},{"type":"Feature","properties":{"Name":"\nミニストップ 足立梅島1丁目店\n","Address":"東京都足立区梅島1丁目11番10号 グランデュオガ-デン深水"},"geometry":{"type":"Point","coordinates":[139.7989016,35.7726614]}},{"type":"Feature","properties":{"Name":"\nミニストップ 足立竹の塚7丁目店\n","Address":"東京都足立区竹の塚7丁目1-15"},"geometry":{"type":"Point","coordinates":[139.797526,35.7994023]}},{"type":"Feature","properties":{"Name":"\nミニストップ ピーくんガーデン店\n","Address":"東京都足立区谷中2-22-18"},"geometry":{"type":"Point","coordinates":[139.8344595,35.7770221]}},{"type":"Feature","properties":{"Name":"\nミニストップ 足立綾瀬1丁目店\n","Address":"東京都足立区綾瀬1丁目34番7号 綾瀬プルミエ1階"},"geometry":{"type":"Point","coordinates":[139.8212213,35.7610796]}},{"type":"Feature","properties":{"Name":"\nミニストップ 足立トラックターミナル店\n","Address":"東京都足立区入谷6-1-1"},"geometry":{"type":"Point","coordinates":[139.7668852,35.8007934]}},{"type":"Feature","properties":{"Name":"\nセブンイレブン 足立関原3丁目店\n","Address":"東京都足立区関原3-50-9"},"geometry":{"type":"Point","coordinates":[139.7848566,35.7738214]}},{"type":"Feature","properties":{"Name":"\nセブンイレブン 足立西新井栄町3丁目店\n","Address":"東京都足立区西新井栄町3-18-11"},"geometry":{"type":"Point","coordinates":[139.78419,35.7778769]}},{"type":"Feature","properties":{"Name":"\nセブンイレブン 足立江北1丁目店\n","Address":"東京都足立区江北1丁目33番19号"},"geometry":{"type":"Point","coordinates":[139.7699222,35.7726629]}},{"type":"Feature","properties":{"Name":"\nセブンイレブン 足立ハートアイランド新田店\n","Address":"東京都足立区新田3-35-20"},"geometry":{"type":"Point","coordinates":[139.7480302,35.7690045]}},{"type":"Feature","properties":{"Name":"\nセブンイレブン 千住桜木店\n","Address":"東京都足立区千住桜木1-10-3"},"geometry":{"type":"Point","coordinates":[139.7934848,35.7515768]}},{"type":"Feature","properties":{"Name":"\nセブンイレブン 足立梅島駅北店\n","Address":"東京都足立区梅島1-36-7"},"geometry":{"type":"Point","coordinates":[139.7977548,35.7748769]}},{"type":"Feature","properties":{"Name":"\nセブンイレブン 足立六町1丁目店\n","Address":"東京都足立区六町1丁目17-47"},"geometry":{"type":"Point","coordinates":[139.8211089,35.7829091]}},{"type":"Feature","properties":{"Name":"\nセブンイレブン 足立竹ノ塚駅東店\n","Address":"東京都足立区竹の塚6-1-13"},"geometry":{"type":"Point","coordinates":[139.7943231,35.7941339]}},{"type":"Feature","properties":{"Name":"\nセブンイレブン 足立神明1丁目店\n","Address":"東京都足立区神明1-4-5"},"geometry":{"type":"Point","coordinates":[139.8305592,35.7927676]}},{"type":"Feature","properties":{"Name":"\nセブンイレブン 足立西綾瀬3丁目店\n","Address":"東京都足立区西綾瀬3丁目14-7"},"geometry":{"type":"Point","coordinates":[139.8173895,35.7636021]}},{"type":"Feature","properties":{"Name":"\nセブンイレブン 足立辰沼東店\n","Address":"東京都足立区佐野2-2-11"},"geometry":{"type":"Point","coordinates":[139.8386814,35.7855146]}},{"type":"Feature","properties":{"Name":"\nセブンイレブン 足立加平2丁目店\n","Address":"東京都足立区加平2丁目24番3"},"geometry":{"type":"Point","coordinates":[139.8270574,35.7825618]}},{"type":"Feature","properties":{"Name":"\nセブンイレブン 足立堀之内2丁目店\n","Address":"東京都足立区堀之内2-15-8"},"geometry":{"type":"Point","coordinates":[139.7566229,35.7779378]}},{"type":"Feature","properties":{"Name":"\nセブンイレブン 足立入谷7丁目店\n","Address":"東京都足立区入谷7-8-12"},"geometry":{"type":"Point","coordinates":[139.7608013,35.8016957]}},{"type":"Feature","properties":{"Name":"\nセブンイレブン 西新井駅東店\n","Address":"東京都足立区西新井栄町1-8-2"},"geometry":{"type":"Point","coordinates":[139.7922382,35.7750126]}},{"type":"Feature","properties":{"Name":"\nセブンイレブン 梅田店\n","Address":"東京都足立区梅田7丁目16番3号"},"geometry":{"type":"Point","coordinates":[139.7987244,35.7690623]}},{"type":"Feature","properties":{"Name":"\nセブンイレブン 足立鹿浜2丁目店\n","Address":"東京都足立区鹿浜2-32-1"},"geometry":{"type":"Point","coordinates":[139.7508727,35.7826297]}},{"type":"Feature","properties":{"Name":"\nセブンイレブン 綾瀬駅西口店\n","Address":"東京都足立区綾瀬1-39-11"},"geometry":{"type":"Point","coordinates":[139.8237079,35.7616531]}},{"type":"Feature","properties":{"Name":"\nセブンイレブン 足立新広橋店\n","Address":"東京都足立区佐野1-35-3"},"geometry":{"type":"Point","coordinates":[139.8414715,35.78997409999999]}},{"type":"Feature","properties":{"Name":"\nセブンイレブン 足立東保木間店\n","Address":"東京都足立区東保木間2-5-8"},"geometry":{"type":"Point","coordinates":[139.811478,35.7948204]}},{"type":"Feature","properties":{"Name":"\nセブンイレブン 足立竹の塚6丁目店\n","Address":"東京都足立区竹の塚6-23-11"},"geometry":{"type":"Point","coordinates":[139.7943754,35.7972007]}},{"type":"Feature","properties":{"Name":"\nセブンイレブン 足立千住3丁目店\n","Address":"東京都足立区千住3-51"},"geometry":{"type":"Point","coordinates":[139.8031703,35.7519983]}},{"type":"Feature","properties":{"Name":"\nセブンイレブン 足立宮城1丁目店\n","Address":"東京都足立区宮城1-26-10"},"geometry":{"type":"Point","coordinates":[139.7563983,35.7606621]}},{"type":"Feature","properties":{"Name":"\nセブンイレブン 足立大谷田4丁目店\n","Address":"東京都足立区大谷田4丁目5-4"},"geometry":{"type":"Point","coordinates":[139.8367176,35.7780561]}},{"type":"Feature","properties":{"Name":"\nセブンイレブン 足立保木間1丁目店\n","Address":"東京都足立区保木間1ー7ー10"},"geometry":{"type":"Point","coordinates":[139.8065702,35.7891731]}},{"type":"Feature","properties":{"Name":"\nセブンイレブン 足立西新井6丁目店\n","Address":"東京都足立区西新井6丁目41番7号"},"geometry":{"type":"Point","coordinates":[139.7784635,35.7823832]}},{"type":"Feature","properties":{"Name":"\nセブンイレブン 足立興野1丁目店\n","Address":"東京都足立区興野1-18-20"},"geometry":{"type":"Point","coordinates":[139.7806703,35.76767]}},{"type":"Feature","properties":{"Name":"\nセブンイレブン 北千住駅東口店\n","Address":"東京都足立区千住旭町4-13"},"geometry":{"type":"Point","coordinates":[139.806852,35.7493732]}},{"type":"Feature","properties":{"Name":"\nセブンイレブン 足立花畑1丁目店\n","Address":"東京都足立区花畑1丁目35-11"},"geometry":{"type":"Point","coordinates":[139.8171011,35.8007334]}},{"type":"Feature","properties":{"Name":"\nセブンイレブン 足立青井3丁目店\n","Address":"東京都足立区青井3-12-3"},"geometry":{"type":"Point","coordinates":[139.8205333,35.7709283]}},{"type":"Feature","properties":{"Name":"\nセブンイレブン 足立古千谷本町3丁目店\n","Address":"東京都足立区古千谷本町3-3-1"},"geometry":{"type":"Point","coordinates":[139.7755509,35.807226]}},{"type":"Feature","properties":{"Name":"\nセブンイレブン 足立梅島2丁目店\n","Address":"東京都足立区梅島2-28-20"},"geometry":{"type":"Point","coordinates":[139.8029327,35.7770582]}},{"type":"Feature","properties":{"Name":"\nセブンイレブン 足立扇2丁目店\n","Address":"東京都足立区扇2丁目44-1"},"geometry":{"type":"Point","coordinates":[139.770269,35.7685223]}},{"type":"Feature","properties":{"Name":"\nセブンイレブン 足立綾瀬1丁目店\n","Address":"東京都足立区綾瀬1-17-9"},"geometry":{"type":"Point","coordinates":[139.8236565,35.7583348]}},{"type":"Feature","properties":{"Name":"\nセブンイレブン 足立扇3丁目店\n","Address":"東京都足立区扇3ー19ー18"},"geometry":{"type":"Point","coordinates":[139.772072,35.77397759999999]}},{"type":"Feature","properties":{"Name":"\nセブンイレブン 足立綾瀬2丁目店\n","Address":"東京都足立区綾瀬2-26-12"},"geometry":{"type":"Point","coordinates":[139.8271374,35.7618708]}},{"type":"Feature","properties":{"Name":"\nセブンイレブン 足立西新井本町店\n","Address":"東京都足立区西新井本町1-14-14"},"geometry":{"type":"Point","coordinates":[139.7817274,35.7771151]}},{"type":"Feature","properties":{"Name":"\nセブンイレブン 足立南花畑2丁目店\n","Address":"東京都足立区南花畑2-48-9"},"geometry":{"type":"Point","coordinates":[139.8204381,35.793066]}},{"type":"Feature","properties":{"Name":"\nセブンイレブン 足立青井駅前店\n","Address":"東京都足立区青井3丁目36-12"},"geometry":{"type":"Point","coordinates":[139.820202,35.7736293]}},{"type":"Feature","properties":{"Name":"\nセブンイレブン 足立西新井栄町1丁目店\n","Address":"東京都足立区西新井栄町1-18-1"},"geometry":{"type":"Point","coordinates":[139.7878312,35.7735765]}},{"type":"Feature","properties":{"Name":"\nセブンイレブン 足立梅田5丁目店\n","Address":"東京都足立区梅田5丁目25番17号"},"geometry":{"type":"Point","coordinates":[139.7954527,35.7698499]}},{"type":"Feature","properties":{"Name":"\nセブンイレブン 足立青井1丁目店\n","Address":"東京都足立区青井1-9-8"},"geometry":{"type":"Point","coordinates":[139.8113868,35.7753687]}},{"type":"Feature","properties":{"Name":"\nセブンイレブン 足立花畑8丁目店\n","Address":"東京都足立区花畑8丁目7-7"},"geometry":{"type":"Point","coordinates":[139.8227866,35.8132846]}},{"type":"Feature","properties":{"Name":"\nセブンイレブン 足立西新井本町4丁目店\n","Address":"東京都足立区西新井本町4丁目30-7"},"geometry":{"type":"Point","coordinates":[139.7746445,35.7720242]}},{"type":"Feature","properties":{"Name":"\nセブンイレブン 足立入谷8丁目店\n","Address":"東京都足立区入谷8丁目1番7"},"geometry":{"type":"Point","coordinates":[139.7585186,35.8034947]}},{"type":"Feature","properties":{"Name":"\nセブンイレブン 足立梅田2丁目店\n","Address":"東京都足立区梅田2-24-1"},"geometry":{"type":"Point","coordinates":[139.7987596,35.7655423]}},{"type":"Feature","properties":{"Name":"\nセブンイレブン 足立西新井4丁目店\n","Address":"東京都足立区西新井4-33-1"},"geometry":{"type":"Point","coordinates":[139.7790841,35.7889436]}},{"type":"Feature","properties":{"Name":"\nセブンイレブン 足立車検場前店\n","Address":"東京都足立区南花畑5丁目24-35"},"geometry":{"type":"Point","coordinates":[139.8165711,35.7981561]}},{"type":"Feature","properties":{"Name":"\nセブンイレブン 足立大谷田1丁目店\n","Address":"東京都足立区大谷田1-2-1"},"geometry":{"type":"Point","coordinates":[139.8450523,35.7766142]}},{"type":"Feature","properties":{"Name":"\nセブンイレブン 足立江北6丁目店\n","Address":"東京都足立区江北6-23-8"},"geometry":{"type":"Point","coordinates":[139.765471,35.7822433]}},{"type":"Feature","properties":{"Name":"\nセブンイレブン 足立西新井5丁目店\n","Address":"東京都足立区西新井5-8-8"},"geometry":{"type":"Point","coordinates":[139.7728424,35.78361340000001]}},{"type":"Feature","properties":{"Name":"\nセブンイレブン 足立伊興2丁目店\n","Address":"東京都足立区伊興2-10-13"},"geometry":{"type":"Point","coordinates":[139.782523,35.7923244]}},{"type":"Feature","properties":{"Name":"\nセブンイレブン 足立増田橋店\n","Address":"東京都足立区竹の塚3丁目3-16"},"geometry":{"type":"Point","coordinates":[139.7993802,35.7889354]}},{"type":"Feature","properties":{"Name":"\nセブンイレブン 足立亀田小前店\n","Address":"東京都足立区関原3-13-10"},"geometry":{"type":"Point","coordinates":[139.7926687,35.7719909]}},{"type":"Feature","properties":{"Name":"\nセブンイレブン 足立谷中4丁目店\n","Address":"東京都足立区谷中4丁目9番4号"},"geometry":{"type":"Point","coordinates":[139.8324763,35.77789380000001]}},{"type":"Feature","properties":{"Name":"\nセブンイレブン 綾瀬店\n","Address":"東京都足立区綾瀬5-2-15"},"geometry":{"type":"Point","coordinates":[139.824895,35.7662166]}},{"type":"Feature","properties":{"Name":"\nセブンイレブン 足立伊興小西店\n","Address":"東京都足立区伊興4-20-6"},"geometry":{"type":"Point","coordinates":[139.7797642,35.795727]}},{"type":"Feature","properties":{"Name":"\nセブンイレブン 足立西保木間3丁目店\n","Address":"東京都足立区竹の塚7-21-17"},"geometry":{"type":"Point","coordinates":[139.7971435,35.8014147]}},{"type":"Feature","properties":{"Name":"\nセブンイレブン 足立中川4丁目店\n","Address":"東京都足立区中川4丁目33番2号"},"geometry":{"type":"Point","coordinates":[139.8487141,35.7699971]}},{"type":"Feature","properties":{"Name":"\nセブンイレブン 足立伊興番田店\n","Address":"東京都足立区西伊興4-10-7"},"geometry":{"type":"Point","coordinates":[139.7798104,35.80107220000001]}},{"type":"Feature","properties":{"Name":"\nセブンイレブン 足立東伊興1丁目店\n","Address":"東京都足立区東伊興1-13-11"},"geometry":{"type":"Point","coordinates":[139.7838903,35.8049202]}},{"type":"Feature","properties":{"Name":"\nセブンイレブン 足立鹿浜店\n","Address":"東京都足立区鹿浜6-36-12"},"geometry":{"type":"Point","coordinates":[139.7615835,35.7884119]}},{"type":"Feature","properties":{"Name":"\nセブンイレブン 足立4丁目店\n","Address":"東京都足立区足立4-17-2"},"geometry":{"type":"Point","coordinates":[139.8067916,35.7670377]}},{"type":"Feature","properties":{"Name":"\nセブンイレブン 足立島根店\n","Address":"東京都足立区島根4-21-24"},"geometry":{"type":"Point","coordinates":[139.7974957,35.7826437]}},{"type":"Feature","properties":{"Name":"\nセブンイレブン 足立中川1丁目店\n","Address":"東京都足立区中川1丁目9-3"},"geometry":{"type":"Point","coordinates":[139.8532458,35.7663306]}},{"type":"Feature","properties":{"Name":"\nセブンイレブン 足立一ツ家3丁目店\n","Address":"東京都足立区一ツ家3-10-3"},"geometry":{"type":"Point","coordinates":[139.814317,35.7798574]}},{"type":"Feature","properties":{"Name":"\nセブンイレブン 足立綾瀬4丁目店\n","Address":"東京都足立区綾瀬4-29-16"},"geometry":{"type":"Point","coordinates":[139.8231004,35.7686936]}},{"type":"Feature","properties":{"Name":"\nセブンイレブン 足立本木西町店\n","Address":"東京都足立区本木西町1-7"},"geometry":{"type":"Point","coordinates":[139.7802166,35.7600725]}},{"type":"Feature","properties":{"Name":"\nセブンイレブン 足立鹿浜3丁目店\n","Address":"東京都足立区鹿浜3-8-20"},"geometry":{"type":"Point","coordinates":[139.7554798,35.7797002]}},{"type":"Feature","properties":{"Name":"\nセブンイレブン 足立中居郵便局前店\n","Address":"東京都足立区千住1-12-1"},"geometry":{"type":"Point","coordinates":[139.7996539,35.7489914]}},{"type":"Feature","properties":{"Name":"\nセブンイレブン 足立入谷1丁目店\n","Address":"東京都足立区入谷1-7-16"},"geometry":{"type":"Point","coordinates":[139.7696865,35.8048544]}},{"type":"Feature","properties":{"Name":"\nセブンイレブン 足立千住2丁目店\n","Address":"東京都足立区千住2丁目62"},"geometry":{"type":"Point","coordinates":[139.8038667,35.749254]}},{"type":"Feature","properties":{"Name":"\nセブンイレブン 足立入谷5丁目店\n","Address":"東京都足立区入谷5-5-10"},"geometry":{"type":"Point","coordinates":[139.7635308,35.8051779]}},{"type":"Feature","properties":{"Name":"\nセブンイレブン 本木店\n","Address":"東京都足立区本木2-4-21"},"geometry":{"type":"Point","coordinates":[139.7861072,35.7665216]}},{"type":"Feature","properties":{"Name":"\nセブンイレブン 足立東和2丁目店\n","Address":"東京都足立区東和2-27-1"},"geometry":{"type":"Point","coordinates":[139.8435406,35.7702784]}},{"type":"Feature","properties":{"Name":"\nセブンイレブン 足立入谷9丁目店\n","Address":"東京都足立区入谷9丁目17-32"},"geometry":{"type":"Point","coordinates":[139.7553306,35.8094811]}},{"type":"Feature","properties":{"Name":"\nセブンイレブン 足立柳原2丁目店\n","Address":"東京都足立区柳原2-3-4"},"geometry":{"type":"Point","coordinates":[139.8103183,35.7483997]}},{"type":"Feature","properties":{"Name":"\nセブンイレブン 足立皿沼農協前店\n","Address":"東京都足立区鹿浜8-28-13"},"geometry":{"type":"Point","coordinates":[139.7648759,35.7903616]}},{"type":"Feature","properties":{"Name":"\nセブンイレブン 足立鹿浜6丁目店\n","Address":"東京都足立区鹿浜6丁目13-6"},"geometry":{"type":"Point","coordinates":[139.7565559,35.7842965]}},{"type":"Feature","properties":{"Name":"\nセブンイレブン 千住仲町店\n","Address":"東京都足立区千住仲町11番13号"},"geometry":{"type":"Point","coordinates":[139.8002284,35.74517]}},{"type":"Feature","properties":{"Name":"\nセブンイレブン 足立東和1丁目店\n","Address":"東京都足立区東和1ー2ー5"},"geometry":{"type":"Point","coordinates":[139.8357664,35.7642537]}},{"type":"Feature","properties":{"Name":"\nセブンイレブン 足立入谷3丁目店\n","Address":"東京都足立区入谷3-7-15"},"geometry":{"type":"Point","coordinates":[139.7608953,35.8099221]}},{"type":"Feature","properties":{"Name":"\nセブンイレブン 足立千住曙町店\n","Address":"東京都足立区千住曙町9-8"},"geometry":{"type":"Point","coordinates":[139.8131266,35.7430147]}},{"type":"Feature","properties":{"Name":"\nセブンイレブン 千住寿町店\n","Address":"東京都足立区千住寿町9-13"},"geometry":{"type":"Point","coordinates":[139.798779,35.753309]}},{"type":"Feature","properties":{"Name":"\nセブンイレブン 足立梅島1丁目店\n","Address":"東京都足立区梅島1-24-1"},"geometry":{"type":"Point","coordinates":[139.8031794,35.7718435]}},{"type":"Feature","properties":{"Name":"\nセブンイレブン 足立千住1丁目店\n","Address":"東京都足立区千住1ー24ー7"},"geometry":{"type":"Point","coordinates":[139.8017738,35.747389]}},{"type":"Feature","properties":{"Name":"\nセブンイレブン 足立舎人2丁目店\n","Address":"東京都足立区舎人2ー21ー10"},"geometry":{"type":"Point","coordinates":[139.7710945,35.8142163]}},{"type":"Feature","properties":{"Name":"\nセブンイレブン 関原店\n","Address":"東京都足立区関原2-1-3"},"geometry":{"type":"Point","coordinates":[139.7907016,35.7646195]}},{"type":"Feature","properties":{"Name":"\nセブンイレブン 足立東保木間1丁目店\n","Address":"東京都足立区東保木間1-13-3"},"geometry":{"type":"Point","coordinates":[139.8132495,35.7890694]}},{"type":"Feature","properties":{"Name":"\nセブンイレブン 足立東伊興3丁目店\n","Address":"東京都足立区東伊興3丁目4-6"},"geometry":{"type":"Point","coordinates":[139.7900382,35.799703]}},{"type":"Feature","properties":{"Name":"\nセブンイレブン 千住旭町店\n","Address":"東京都足立区千住旭町1-21"},"geometry":{"type":"Point","coordinates":[139.8053107,35.7472267]}},{"type":"Feature","properties":{"Name":"\nセブンイレブン 足立保木間3丁目店\n","Address":"東京都足立区保木間3丁目10-10"},"geometry":{"type":"Point","coordinates":[139.8049633,35.7968523]}},{"type":"Feature","properties":{"Name":"\nセブンイレブン 足立舎人4丁目尾久橋通り店\n","Address":"東京都足立区舎人4-11-24"},"geometry":{"type":"Point","coordinates":[139.7706192,35.8166017]}},{"type":"Feature","properties":{"Name":"\nセブンイレブン 足立西保木間4丁目店\n","Address":"東京都足立区西保木間4-14-23"},"geometry":{"type":"Point","coordinates":[139.8010798,35.8074289]}},{"type":"Feature","properties":{"Name":"\nセブンイレブン 足立栗原4丁目店\n","Address":"東京都足立区栗原4-19-20"},"geometry":{"type":"Point","coordinates":[139.7857066,35.7866513]}},{"type":"Feature","properties":{"Name":"\nセブンイレブン 足立青井5丁目店\n","Address":"東京都足立区青井5-4-1"},"geometry":{"type":"Point","coordinates":[139.8158408,35.7773533]}},{"type":"Feature","properties":{"Name":"\nセブンイレブン 足立花畑西店\n","Address":"東京都足立区花畑5-2-6"},"geometry":{"type":"Point","coordinates":[139.8037365,35.8064588]}},{"type":"Feature","properties":{"Name":"\nセブンイレブン 足立六月3丁目店\n","Address":"東京都足立区六月3-5-13"},"geometry":{"type":"Point","coordinates":[139.789972,35.7860512]}},{"type":"Feature","properties":{"Name":"\nセブンイレブン 足立五反野駅前店\n","Address":"東京都足立区足立4-41-5"},"geometry":{"type":"Point","coordinates":[139.8085455,35.7658616]}},{"type":"Feature","properties":{"Name":"\nセブンイレブン 西新井駅西口店\n","Address":"東京都足立区西新井栄町2-7-4"},"geometry":{"type":"Point","coordinates":[139.7891419,35.7772095]}},{"type":"Feature","properties":{"Name":"\nセブンイレブン 足立大谷田店\n","Address":"東京都足立区大谷田5-6-12"},"geometry":{"type":"Point","coordinates":[139.8392653,35.78172]}},{"type":"Feature","properties":{"Name":"\nセブンイレブン 足立東綾瀬公園店\n","Address":"東京都足立区綾瀬6-41-9"},"geometry":{"type":"Point","coordinates":[139.8293836,35.77198]}},{"type":"Feature","properties":{"Name":"\nセブンイレブン 北千住駅西口店\n","Address":"東京都足立区千住3-74-7"},"geometry":{"type":"Point","coordinates":[139.8038539,35.7506976]}},{"type":"Feature","properties":{"Name":"\nセブンイレブン 足立舎人5丁目尾久橋通り店\n","Address":"東京都足立区舎人5-21-30"},"geometry":{"type":"Point","coordinates":[139.7701638,35.8130803]}},{"type":"Feature","properties":{"Name":"\nセブンイレブン 竹ノ塚店\n","Address":"東京都足立区竹の塚4-4-4"},"geometry":{"type":"Point","coordinates":[139.7991278,35.7929726]}},{"type":"Feature","properties":{"Name":"\nセブンイレブン 足立東和5丁目店\n","Address":"東京都足立区東和5-4-4"},"geometry":{"type":"Point","coordinates":[139.8393758,35.7750955]}},{"type":"Feature","properties":{"Name":"\nセブンイレブン 梅島駅前店\n","Address":"東京都足立区梅田8-1-16"},"geometry":{"type":"Point","coordinates":[139.7973532,35.7712786]}},{"type":"Feature","properties":{"Name":"\nセブンイレブン 足立江北3丁目店\n","Address":"東京都足立区江北3-21-1"},"geometry":{"type":"Point","coordinates":[139.7635618,35.7750054]}},{"type":"Feature","properties":{"Name":"\nセブンイレブン 扇大橋インター店\n","Address":"東京都足立区扇2-12-2"},"geometry":{"type":"Point","coordinates":[139.7670267,35.7617864]}},{"type":"Feature","properties":{"Name":"\nセブンイレブン 足立六木1丁目店\n","Address":"東京都足立区六木1丁目19-28"},"geometry":{"type":"Point","coordinates":[139.8372197,35.7919901]}},{"type":"Feature","properties":{"Name":"\nセブンイレブン 足立辰沼1丁目店\n","Address":"東京都足立区辰沼1-4-6"},"geometry":{"type":"Point","coordinates":[139.8364091,35.7857952]}},{"type":"Feature","properties":{"Name":"\nセブンイレブン 足立東綾瀬店\n","Address":"東京都足立区東綾瀬2-4-1"},"geometry":{"type":"Point","coordinates":[139.829721,35.7683357]}},{"type":"Feature","properties":{"Name":"\nセブンイレブン 足立一ツ家2丁目店\n","Address":"東京都足立区一ツ家2丁目9番"},"geometry":{"type":"Point","coordinates":[139.8157855,35.7829937]}},{"type":"Feature","properties":{"Name":"\nセブンイレブン 足立六木店\n","Address":"東京都足立区六木3-2-3"},"geometry":{"type":"Point","coordinates":[139.8404007,35.7949785]}},{"type":"Feature","properties":{"Name":"\nセブンイレブン 足立平野1丁目店\n","Address":"東京都足立区平野1丁目1-1"},"geometry":{"type":"Point","coordinates":[139.8033798,35.7789528]}},{"type":"Feature","properties":{"Name":"\nセブンイレブン 足立竹ノ塚駅南店\n","Address":"東京都足立区竹の塚1-29-1"},"geometry":{"type":"Point","coordinates":[139.7911638,35.7927379]}},{"type":"Feature","properties":{"Name":"\nセブンイレブン 足立花保南店\n","Address":"東京都足立区東保木間1丁目23番7号"},"geometry":{"type":"Point","coordinates":[139.8165049,35.7892319]}},{"type":"Feature","properties":{"Name":"\nセブンイレブン 足立保塚町店\n","Address":"東京都足立区保塚町12-26"},"geometry":{"type":"Point","coordinates":[139.8102645,35.78633689999999]}},{"type":"Feature","properties":{"Name":"\nセブンイレブン 足立弘道1丁目店\n","Address":"東京都足立区弘道1-2-17"},"geometry":{"type":"Point","coordinates":[139.81048,35.7664307]}},{"type":"Feature","properties":{"Name":"\nセブンイレブン 扇大橋駅前店\n","Address":"東京都足立区扇2丁目25番21号"},"geometry":{"type":"Point","coordinates":[139.7705377,35.763857]}},{"type":"Feature","properties":{"Name":"\nセブンイレブン 千住大橋駅店\n","Address":"東京都足立区千住橋戸町11-4"},"geometry":{"type":"Point","coordinates":[139.7970636,35.7424208]}},{"type":"Feature","properties":{"Name":"\nセブンイレブン 足立江北橋東店\n","Address":"東京都足立区扇2-20-19"},"geometry":{"type":"Point","coordinates":[139.7668121,35.764759]}},{"type":"Feature","properties":{"Name":"\nセブンイレブン 足立千住4丁目店\n","Address":"東京都足立区千住4-16-13"},"geometry":{"type":"Point","coordinates":[139.8039762,35.7535087]}},{"type":"Feature","properties":{"Name":"\nセブンイレブン 足立竹ノ塚駅西店\n","Address":"東京都足立区西竹の塚2-4-11"},"geometry":{"type":"Point","coordinates":[139.789193,35.7953599]}},{"type":"Feature","properties":{"Name":"\nセブンイレブン 足立日ノ出町店\n","Address":"東京都足立区日ノ出町12-16"},"geometry":{"type":"Point","coordinates":[139.8102185,35.74999469999999]}},{"type":"Feature","properties":{"Name":"\nセブンイレブン 足立加平1丁目店\n","Address":"東京都足立区加平1-20-7"},"geometry":{"type":"Point","coordinates":[139.829356,35.7750394]}},{"type":"Feature","properties":{"Name":"\nセブンイレブン 足立東和4丁目店\n","Address":"東京都足立区東和4-9-4"},"geometry":{"type":"Point","coordinates":[139.8403387,35.7722471]}},{"type":"Feature","properties":{"Name":"\nセブンイレブン 足立東綾瀬3丁目店\n","Address":"東京都足立区東綾瀬3-8-4"},"geometry":{"type":"Point","coordinates":[139.8355056,35.769156]}},{"type":"Feature","properties":{"Name":"\nセブンイレブン 足立綾瀬3丁目店\n","Address":"東京都足立区綾瀬3-5-3"},"geometry":{"type":"Point","coordinates":[139.8247389,35.7630619]}},{"type":"Feature","properties":{"Name":"\nセブンイレブン 足立椿2丁目店\n","Address":"東京都足立区椿2丁目1-1"},"geometry":{"type":"Point","coordinates":[139.7603604,35.7785271]}},{"type":"Feature","properties":{"Name":"\nデイリーヤマザキ 北千住駅東口店\n","Address":"東京都足立区千住旭町3-7"},"geometry":{"type":"Point","coordinates":[139.8059196,35.7493739]}},{"type":"Feature","properties":{"Name":"\nデイリーヤマザキ パサージオ西新井店\n","Address":"東京都足立区西新井栄町1-17-1"},"geometry":{"type":"Point","coordinates":[139.7896291,35.7757517]}},{"type":"Feature","properties":{"Name":"\nデイリーヤマザキ 足立保木間4丁目店\n","Address":"東京都足立区保木間4-42-1"},"geometry":{"type":"Point","coordinates":[139.8067056,35.8003059]}},{"type":"Feature","properties":{"Name":"\nデイリーヤマザキ 足立江北1丁目店\n","Address":"東京都足立区江北1-1-1"},"geometry":{"type":"Point","coordinates":[139.7670118,35.7652931]}},{"type":"Feature","properties":{"Name":"\nデイリーヤマザキ 足立北綾瀬店\n","Address":"東京都足立区谷中2-10-12"},"geometry":{"type":"Point","coordinates":[139.8335885,35.7760208]}},{"type":"Feature","properties":{"Name":"\nデイリーヤマザキ 足立西伊興2丁目店\n","Address":"東京都足立区西伊興2-7-17"},"geometry":{"type":"Point","coordinates":[139.7771039,35.7954921]}},{"type":"Feature","properties":{"Name":"\nデイリーヤマザキ 西新井栄町店\n","Address":"東京都足立区西新井栄町2-4-1"},"geometry":{"type":"Point","coordinates":[139.7887394,35.7763182]}},{"type":"Feature","properties":{"Name":"\nデイリーヤマザキ 足立島根店\n","Address":"東京都足立区島根4-1-9"},"geometry":{"type":"Point","coordinates":[139.7971708,35.7822274]}},{"type":"Feature","properties":{"Name":"\nデイリーヤマザキ 足立谷在家月の友店\n","Address":"東京都足立区谷在家2-9-4"},"geometry":{"type":"Point","coordinates":[139.7669286,35.783337]}},{"type":"Feature","properties":{"Name":"\nデイリーヤマザキ ウェルネスTN西新井店\n","Address":"東京都足立区西新井栄町1-17-10"},"geometry":{"type":"Point","coordinates":[139.7898812,35.7749385]}},{"type":"Feature","properties":{"Name":"\nデイリーヤマザキ 足立江北3丁目店\n","Address":"東京都足立区江北3-7-7"},"geometry":{"type":"Point","coordinates":[139.7617986,35.7730837]}},{"type":"Feature","properties":{"Name":"\nデイリーヤマザキ 谷中北店\n","Address":"東京都足立区谷中4-2-15"},"geometry":{"type":"Point","coordinates":[139.8305454,35.7789247]}}]}