{"type":"FeatureCollection","features":[{"type":"Feature","properties":{"Name":"\r\nサンスマイル\r\n","Address":"東京都渋谷区笹塚1丁目58-14"},"geometry":{"type":"Point","coordinates":[139.6664025,35.6734734]}},{"type":"Feature","properties":{"Name":"\r\nニューデイズ代々木店\r\n","Address":"東京都渋谷区代々木1丁目34-1"},"geometry":{"type":"Point","coordinates":[139.7020467,35.6831028]}},{"type":"Feature","properties":{"Name":"\r\nニューデイズ渋谷7号\r\n","Address":"東京都渋谷区道玄坂1丁目1-1"},"geometry":{"type":"Point","coordinates":[139.7009081,35.6586951]}},{"type":"Feature","properties":{"Name":"\r\nKIOSK(キオスク) 渋谷1号店\r\n","Address":"東京都渋谷区渋谷 渋谷駅2番線山手線内回りホーム"},"geometry":{"type":"Point","coordinates":[139.7016358,35.6580339]}},{"type":"Feature","properties":{"Name":"\r\nKIOSK(キオスク) 渋谷10号\r\n","Address":"東京都渋谷区道玄坂1 渋谷駅南口改札外左側"},"geometry":{"type":"Point","coordinates":[139.701372,35.658136]}},{"type":"Feature","properties":{"Name":"\r\nA LoT(アロット) 渋谷井の頭線ホーム店\r\n","Address":"東京都渋谷区道玄坂1 井の頭線ホーム"},"geometry":{"type":"Point","coordinates":[139.6993707,35.6585744]}},{"type":"Feature","properties":{"Name":"\r\nK-Shop渋谷店\r\n","Address":"東京都渋谷区道玄坂1 井の頭線改札外コンコース"},"geometry":{"type":"Point","coordinates":[139.6981574,35.6581518]}},{"type":"Feature","properties":{"Name":"\r\nメトロス 銀座線上りホーム中央店\r\n","Address":"東京都渋谷区渋谷2"},"geometry":{"type":"Point","coordinates":[139.7070931,35.6594459]}},{"type":"Feature","properties":{"Name":"\r\nメトロス 銀座線JR改札付近店\r\n","Address":"東京都渋谷区渋谷2"},"geometry":{"type":"Point","coordinates":[139.7070931,35.6594459]}},{"type":"Feature","properties":{"Name":"\r\nメトロス 半蔵門線ホーム錦糸町寄り店\r\n","Address":"東京都渋谷区渋谷2"},"geometry":{"type":"Point","coordinates":[139.7070931,35.6594459]}},{"type":"Feature","properties":{"Name":"\r\nメトロス 渋谷駅 宮益坂口改札付近店\r\n","Address":"東京都渋谷区渋谷2"},"geometry":{"type":"Point","coordinates":[139.7070931,35.6594459]}},{"type":"Feature","properties":{"Name":"\r\nトークス 渋谷店\r\n","Address":"東京都渋谷区道玄坂2-1-1 渋谷駅2FJR改札横"},"geometry":{"type":"Point","coordinates":[139.6997516,35.659448]}},{"type":"Feature","properties":{"Name":"\r\nトークス 田園都市線渋谷ホーム店\r\n","Address":"東京都渋谷区道玄坂2-1-1 田園都市線渋谷駅 B3Fホーム内"},"geometry":{"type":"Point","coordinates":[139.6995167,35.6594898]}},{"type":"Feature","properties":{"Name":"\r\nNewDays KIOSK 渋谷駅1番線ホーム店\r\n","Address":"東京都渋谷区 渋谷駅1番線ホーム"},"geometry":{"type":"Point","coordinates":[139.7014312,35.6580635]}},{"type":"Feature","properties":{"Name":"\r\nNEWDAYS(ニューデイズ) JR南新宿ビル店\r\n","Address":"東京都渋谷区代々木2-1 JR南新宿ビル2階エントランス脇"},"geometry":{"type":"Point","coordinates":[139.699713,35.6861951]}},{"type":"Feature","properties":{"Name":"\r\nNEWDAYS(ニューデイズ) 新宿新南店\r\n","Address":"東京都新宿区新宿3-38-2 新宿駅新南口改札外"},"geometry":{"type":"Point","coordinates":[139.7005713,35.6896067]}},{"type":"Feature","properties":{"Name":"\r\nNEWDAYS(ニューデイズ) 渋谷7号店\r\n","Address":"東京都渋谷区道玄坂1 渋谷駅改札内埼京連絡通路中央"},"geometry":{"type":"Point","coordinates":[139.7016358,35.6580339]}},{"type":"Feature","properties":{"Name":"\r\n生活彩家 青少年総合センター店\r\n","Address":"東京都渋谷区代々木神園町3-1 国立オリンピック青少年総合センター宿泊D棟1F"},"geometry":{"type":"Point","coordinates":[139.6925538,35.6756251]}},{"type":"Feature","properties":{"Name":"\r\nNEWDAYS MINI(ニューデイズミニ) 恵比寿2号店\r\n","Address":"東京都渋谷区恵比寿南1 恵比寿駅東口改札横"},"geometry":{"type":"Point","coordinates":[139.7100777,35.6467139]}},{"type":"Feature","properties":{"Name":"\r\nNEWDAYS(ニューデイズ) 恵比寿店\r\n","Address":"東京都渋谷区恵比寿南1 恵比寿駅西口改札内正面"},"geometry":{"type":"Point","coordinates":[139.7100777,35.6467139]}},{"type":"Feature","properties":{"Name":"\r\nNEWDAYS(ニューデイズ) JR病院店\r\n","Address":"東京都渋谷区代々木2-1-3 JR東京総合病院2F"},"geometry":{"type":"Point","coordinates":[139.7001519,35.6854126]}},{"type":"Feature","properties":{"Name":"\r\nNEWDAYSMINI(ニューデイズミニ) 千駄ヶ谷1号店\r\n","Address":"東京都渋谷区千駄ヶ谷1丁目"},"geometry":{"type":"Point","coordinates":[139.7109231,35.6793423]}},{"type":"Feature","properties":{"Name":"\r\nニューヤマザキデイリーストア 神宮前店\r\n","Address":"東京都渋谷区神宮前3-42-16"},"geometry":{"type":"Point","coordinates":[139.7141661,35.671816]}},{"type":"Feature","properties":{"Name":"\r\n別所商店\r\n","Address":"東京都渋谷区神宮前2-25-5"},"geometry":{"type":"Point","coordinates":[139.710583,35.6741734]}},{"type":"Feature","properties":{"Name":"\r\n有限会社小島商店\r\n","Address":"東京都渋谷区円山町1-19"},"geometry":{"type":"Point","coordinates":[139.6952836,35.6597717]}},{"type":"Feature","properties":{"Name":"\r\n有限会社シンコー商事\r\n","Address":"東京都渋谷区道玄坂2-29-13"},"geometry":{"type":"Point","coordinates":[139.6978763,35.6596774]}},{"type":"Feature","properties":{"Name":"\r\n阿木酒店\r\n","Address":"東京都渋谷区東1-27-8"},"geometry":{"type":"Point","coordinates":[139.7073109,35.6542257]}},{"type":"Feature","properties":{"Name":"\r\n99イチバ渋谷幡ヶ谷店\r\n","Address":"東京都渋谷区本町5-39-2"},"geometry":{"type":"Point","coordinates":[139.675411,35.6818369]}},{"type":"Feature","properties":{"Name":"\r\nみんなのイチバ代々木駅東口店\r\n","Address":"東京都渋谷区千駄ヶ谷5-22-3"},"geometry":{"type":"Point","coordinates":[139.7040031,35.6835375]}},{"type":"Feature","properties":{"Name":"\r\nローソン 広尾五丁目店\r\n","Address":"東京都渋谷区広尾5-8-16"},"geometry":{"type":"Point","coordinates":[139.7210267,35.6482906]}},{"type":"Feature","properties":{"Name":"\r\nローソン 千駄ヶ谷一丁目店\r\n","Address":"東京都渋谷区千駄ヶ谷1-20-6"},"geometry":{"type":"Point","coordinates":[139.710388,35.6795159]}},{"type":"Feature","properties":{"Name":"\r\nローソン 渋谷本町一丁目店\r\n","Address":"東京都渋谷区本町1-21-12"},"geometry":{"type":"Point","coordinates":[139.6797118,35.6784684]}},{"type":"Feature","properties":{"Name":"\r\nローソン 渋谷鶯谷町店\r\n","Address":"東京都渋谷区鶯谷町15-9"},"geometry":{"type":"Point","coordinates":[139.700562,35.6541521]}},{"type":"Feature","properties":{"Name":"\r\nローソン 神宮前四丁目店\r\n","Address":"東京都渋谷区神宮前4-29-3"},"geometry":{"type":"Point","coordinates":[139.7065209,35.6682519]}},{"type":"Feature","properties":{"Name":"\r\nローソン 神山店\r\n","Address":"東京都渋谷区神山町12-3"},"geometry":{"type":"Point","coordinates":[139.6944511,35.6628048]}},{"type":"Feature","properties":{"Name":"\r\nローソン 富ヶ谷一丁目店\r\n","Address":"東京都渋谷区富ヶ谷1-6-9"},"geometry":{"type":"Point","coordinates":[139.6893227,35.6690688]}},{"type":"Feature","properties":{"Name":"\r\nローソン 円山町店\r\n","Address":"東京都渋谷区円山町11-10"},"geometry":{"type":"Point","coordinates":[139.6941786,35.6591977]}},{"type":"Feature","properties":{"Name":"\r\nローソン 笹塚駅前店\r\n","Address":"東京都渋谷区笹塚1-28-9"},"geometry":{"type":"Point","coordinates":[139.6673494,35.6730097]}},{"type":"Feature","properties":{"Name":"\r\nローソン 代々木一丁目店\r\n","Address":"東京都渋谷区代々木1-10-1"},"geometry":{"type":"Point","coordinates":[139.6979198,35.68197320000001]}},{"type":"Feature","properties":{"Name":"\r\nローソン 天現寺店\r\n","Address":"東京都渋谷区恵比寿3-39-5"},"geometry":{"type":"Point","coordinates":[139.7208014,35.64385100000001]}},{"type":"Feature","properties":{"Name":"\r\nローソン 恵比寿南一丁目店\r\n","Address":"東京都渋谷区恵比寿南1-7-8"},"geometry":{"type":"Point","coordinates":[139.7098241,35.6460873]}},{"type":"Feature","properties":{"Name":"\r\nローソン 広尾南店\r\n","Address":"東京都渋谷区広尾1-8-10"},"geometry":{"type":"Point","coordinates":[139.715829,35.648677]}},{"type":"Feature","properties":{"Name":"\r\nローソン 南平台店\r\n","Address":"東京都渋谷区南平台町3-7"},"geometry":{"type":"Point","coordinates":[139.6966326,35.6550736]}},{"type":"Feature","properties":{"Name":"\r\nローソン 幡ヶ谷二丁目店\r\n","Address":"東京都渋谷区幡ヶ谷2-49-3"},"geometry":{"type":"Point","coordinates":[139.6771248,35.6797541]}},{"type":"Feature","properties":{"Name":"\r\nローソン 渋谷三丁目店\r\n","Address":"東京都渋谷区渋谷3-28-8"},"geometry":{"type":"Point","coordinates":[139.7042705,35.6560738]}},{"type":"Feature","properties":{"Name":"\r\nローソン 道玄坂二丁目店\r\n","Address":"東京都渋谷区道玄坂2-20-26"},"geometry":{"type":"Point","coordinates":[139.6968045,35.6592947]}},{"type":"Feature","properties":{"Name":"\r\nローソン 渋谷東一丁目店\r\n","Address":"東京都渋谷区東1-3-10"},"geometry":{"type":"Point","coordinates":[139.7081841,35.6573055]}},{"type":"Feature","properties":{"Name":"\r\nローソン 渋谷笹塚二丁目店\r\n","Address":"東京都渋谷区笹塚2-4-3"},"geometry":{"type":"Point","coordinates":[139.6700024,35.6754646]}},{"type":"Feature","properties":{"Name":"\r\nローソン 渋谷二丁目店\r\n","Address":"東京都渋谷区渋谷2-2-5"},"geometry":{"type":"Point","coordinates":[139.7087065,35.6602826]}},{"type":"Feature","properties":{"Name":"\r\nローソン 大江戸線新宿駅前店\r\n","Address":"東京都渋谷区代々木2-6-3"},"geometry":{"type":"Point","coordinates":[139.698597,35.6877781]}},{"type":"Feature","properties":{"Name":"\r\nローソン 神宮前一丁目店\r\n","Address":"東京都渋谷区神宮前1-4-16"},"geometry":{"type":"Point","coordinates":[139.707711,35.6721759]}},{"type":"Feature","properties":{"Name":"\r\nローソン 北参道駅前店\r\n","Address":"東京都渋谷区千駄ヶ谷4-3-1"},"geometry":{"type":"Point","coordinates":[139.7045003,35.6793905]}},{"type":"Feature","properties":{"Name":"\r\nローソン 神泉駅前店\r\n","Address":"東京都渋谷区円山町23-4"},"geometry":{"type":"Point","coordinates":[139.6938274,35.6569783]}},{"type":"Feature","properties":{"Name":"\r\nローソン 恵比寿西一丁目店\r\n","Address":"東京都渋谷区恵比寿西1-12-12"},"geometry":{"type":"Point","coordinates":[139.7073221,35.6474175]}},{"type":"Feature","properties":{"Name":"\r\nローソン 千駄ヶ谷二丁目店\r\n","Address":"東京都渋谷区千駄ヶ谷2-32-4"},"geometry":{"type":"Point","coordinates":[139.712462,35.676105]}},{"type":"Feature","properties":{"Name":"\r\nローソン JPローソン代々木局店\r\n","Address":"東京都渋谷区西原1-42-2"},"geometry":{"type":"Point","coordinates":[139.6822962,35.6769536]}},{"type":"Feature","properties":{"Name":"\r\nローソン 代々木西参道店\r\n","Address":"東京都渋谷区代々木3-37-7"},"geometry":{"type":"Point","coordinates":[139.692957,35.682061]}},{"type":"Feature","properties":{"Name":"\r\nナチュラルローソン 渋谷神泉町店\r\n","Address":"東京都渋谷区神泉町10-9"},"geometry":{"type":"Point","coordinates":[139.6927598,35.655037]}},{"type":"Feature","properties":{"Name":"\r\nナチュラルローソン 恵比寿南三丁目店\r\n","Address":"東京都渋谷区恵比寿南3-1-26"},"geometry":{"type":"Point","coordinates":[139.7064344,35.6459511]}},{"type":"Feature","properties":{"Name":"\r\nナチュラルローソン 渋谷道玄坂一丁目店\r\n","Address":"東京都渋谷区道玄坂1-18-1"},"geometry":{"type":"Point","coordinates":[139.6972014,35.6575791]}},{"type":"Feature","properties":{"Name":"\r\nナチュラルローソン 渋谷代官山店\r\n","Address":"東京都渋谷区猿楽町8-9"},"geometry":{"type":"Point","coordinates":[139.7033039,35.6515354]}},{"type":"Feature","properties":{"Name":"\r\nナチュラルローソン 代々木駅西店\r\n","Address":"東京都渋谷区代々木1-39-11"},"geometry":{"type":"Point","coordinates":[139.7002617,35.6825616]}},{"type":"Feature","properties":{"Name":"\r\nナチュラルローソン 神宮外苑西店\r\n","Address":"東京都渋谷区神宮前3-35-8"},"geometry":{"type":"Point","coordinates":[139.7124184,35.6718707]}},{"type":"Feature","properties":{"Name":"\r\nナチュラルローソン 渋谷一丁目店\r\n","Address":"東京都渋谷区渋谷1-11-1"},"geometry":{"type":"Point","coordinates":[139.7044554,35.66104929999999]}},{"type":"Feature","properties":{"Name":"\r\nナチュラルローソン NL広尾五丁目店\r\n","Address":"東京都渋谷区広尾5-1-25"},"geometry":{"type":"Point","coordinates":[139.7200765,35.6494503]}},{"type":"Feature","properties":{"Name":"\r\nローソン H恵比寿店\r\n","Address":"東京都渋谷区恵比寿南2-2-2"},"geometry":{"type":"Point","coordinates":[139.7075799,35.6458371]}},{"type":"Feature","properties":{"Name":"\r\nローソン H広尾一丁目店\r\n","Address":"東京都渋谷区広尾1-16-3"},"geometry":{"type":"Point","coordinates":[139.7113027,35.6485912]}},{"type":"Feature","properties":{"Name":"\r\nローソン H道玄坂上店\r\n","Address":"東京都渋谷区南平台町15-1"},"geometry":{"type":"Point","coordinates":[139.6955638,35.6553895]}},{"type":"Feature","properties":{"Name":"\r\nローソン 渋谷道玄坂上店\r\n","Address":"東京都渋谷区円山町19-1"},"geometry":{"type":"Point","coordinates":[139.6950804,35.6565181]}},{"type":"Feature","properties":{"Name":"\r\nローソン H初台一丁目店\r\n","Address":"東京都渋谷区初台1-47-1"},"geometry":{"type":"Point","coordinates":[139.6878341,35.6817528]}},{"type":"Feature","properties":{"Name":"\r\nローソン H代々木店\r\n","Address":"東京都渋谷区代々木2-5-3"},"geometry":{"type":"Point","coordinates":[139.6976732,35.6872584]}},{"type":"Feature","properties":{"Name":"\r\nローソン 恵比寿プライムスクエア店\r\n","Address":"東京都渋谷区広尾1-1-39"},"geometry":{"type":"Point","coordinates":[139.7126731,35.6500572]}},{"type":"Feature","properties":{"Name":"\r\nローソン 渋谷区井の頭通店\r\n","Address":"東京都渋谷区宇田川町39-2"},"geometry":{"type":"Point","coordinates":[139.696799,35.6621969]}},{"type":"Feature","properties":{"Name":"\r\nローソン JPローソン渋谷郵便局店\r\n","Address":"東京都渋谷区渋谷1-12-13"},"geometry":{"type":"Point","coordinates":[139.704009,35.6603447]}},{"type":"Feature","properties":{"Name":"\r\nローソン 渋谷大山町店\r\n","Address":"東京都渋谷区大山町2-10"},"geometry":{"type":"Point","coordinates":[139.6755676,35.6681216]}},{"type":"Feature","properties":{"Name":"\r\nローソン 渋谷東三丁目店\r\n","Address":"東京都渋谷区東3-25-11"},"geometry":{"type":"Point","coordinates":[139.7096596,35.6487763]}},{"type":"Feature","properties":{"Name":"\r\nローソン 渋谷警察署南店\r\n","Address":"東京都渋谷区渋谷3-8-12"},"geometry":{"type":"Point","coordinates":[139.7041331,35.6575356]}},{"type":"Feature","properties":{"Name":"\r\nローソン 渋谷初台一丁目店\r\n","Address":"東京都渋谷区初台1-10-7"},"geometry":{"type":"Point","coordinates":[139.6868162,35.6782334]}},{"type":"Feature","properties":{"Name":"\r\nローソン 渋谷ヒカリエ店\r\n","Address":"東京都渋谷区渋谷2-21-1"},"geometry":{"type":"Point","coordinates":[139.7035292,35.6590551]}},{"type":"Feature","properties":{"Name":"\r\nローソン 恵比寿三丁目店\r\n","Address":"東京都渋谷区恵比寿3-1-7"},"geometry":{"type":"Point","coordinates":[139.7166066,35.6453943]}},{"type":"Feature","properties":{"Name":"\r\nローソン 渋谷三丁目明治通り店\r\n","Address":"東京都渋谷区渋谷3-15-3"},"geometry":{"type":"Point","coordinates":[139.7056841,35.6557894]}},{"type":"Feature","properties":{"Name":"\r\nローソン 京王クラウン街笹塚店\r\n","Address":"東京都渋谷区笹塚1-55-16"},"geometry":{"type":"Point","coordinates":[139.6667735,35.6736057]}},{"type":"Feature","properties":{"Name":"\r\nローソン 渋谷ランブリングストリート店\r\n","Address":"東京都渋谷区円山町2-3"},"geometry":{"type":"Point","coordinates":[139.6952812,35.6585063]}},{"type":"Feature","properties":{"Name":"\r\nローソン 国立能楽堂前店\r\n","Address":"東京都渋谷区千駄ヶ谷4-23-5"},"geometry":{"type":"Point","coordinates":[139.7066754,35.6808915]}},{"type":"Feature","properties":{"Name":"\r\nローソン 渋谷幡ヶ谷一丁目店\r\n","Address":"東京都渋谷区幡ヶ谷1-31-1"},"geometry":{"type":"Point","coordinates":[139.6759636,35.6764595]}},{"type":"Feature","properties":{"Name":"\r\nローソン 恵比寿西二丁目店\r\n","Address":"東京都渋谷区恵比寿西2-3-16"},"geometry":{"type":"Point","coordinates":[139.7075932,35.650577]}},{"type":"Feature","properties":{"Name":"\r\nローソン 元代々木町店\r\n","Address":"東京都渋谷区元代々木町33-8"},"geometry":{"type":"Point","coordinates":[139.6871824,35.6716081]}},{"type":"Feature","properties":{"Name":"\r\nナチュラルローソン 代々木八幡店\r\n","Address":"東京都渋谷区富ヶ谷1-53-5"},"geometry":{"type":"Point","coordinates":[139.6886671,35.6690702]}},{"type":"Feature","properties":{"Name":"\r\nローソンストア100 LS渋谷恵比寿二丁目店\r\n","Address":"東京都渋谷区恵比寿2-16-1"},"geometry":{"type":"Point","coordinates":[139.7180514,35.6472715]}},{"type":"Feature","properties":{"Name":"\r\nローソンストア100 渋谷店\r\n","Address":"東京都渋谷区東2-20-13 シャトレー渋谷1F"},"geometry":{"type":"Point","coordinates":[139.7090479,35.6533815]}},{"type":"Feature","properties":{"Name":"\r\nローソンストア100 LS渋谷本町六丁目店\r\n","Address":"東京都渋谷区本町6-8-3"},"geometry":{"type":"Point","coordinates":[139.6786751,35.6826751]}},{"type":"Feature","properties":{"Name":"\r\nローソンストア100 LS渋谷本町三丁目店\r\n","Address":"東京都渋谷区本町3-48-21"},"geometry":{"type":"Point","coordinates":[139.683004,35.687748]}},{"type":"Feature","properties":{"Name":"\r\nローソン 渋谷南平台店\r\n","Address":"東京都渋谷区南平台町6-16"},"geometry":{"type":"Point","coordinates":[139.6981773,35.6546995]}},{"type":"Feature","properties":{"Name":"\r\nローソン 広尾高校前店\r\n","Address":"東京都渋谷区東3-1-6"},"geometry":{"type":"Point","coordinates":[139.7130305,35.6520825]}},{"type":"Feature","properties":{"Name":"\r\nローソン 代々木八幡駅北店\r\n","Address":"東京都渋谷区代々木5-7-2"},"geometry":{"type":"Point","coordinates":[139.688618,35.669848]}},{"type":"Feature","properties":{"Name":"\r\nローソンサテライト 神宮前タワービルディング店\r\n","Address":"東京都渋谷区神宮前1-5-8"},"geometry":{"type":"Point","coordinates":[139.7066309,35.6706504]}},{"type":"Feature","properties":{"Name":"\r\nローソン 渋谷一丁目店\r\n","Address":"東京都渋谷区渋谷1-10-1八千代ビル1階"},"geometry":{"type":"Point","coordinates":[139.7049189,35.660778]}},{"type":"Feature","properties":{"Name":"\r\nローソン 渋谷上原二丁目店\r\n","Address":"東京都渋谷区上原2-43-7"},"geometry":{"type":"Point","coordinates":[139.6815174,35.6672669]}},{"type":"Feature","properties":{"Name":"\r\nローソン 渋谷元代々木町店\r\n","Address":"東京都渋谷区元代々木町49-25"},"geometry":{"type":"Point","coordinates":[139.6866318,35.6738846]}},{"type":"Feature","properties":{"Name":"\r\nローソン 笹塚テラス店\r\n","Address":"東京都渋谷区笹塚1-56-7"},"geometry":{"type":"Point","coordinates":[139.6677526,35.6742172]}},{"type":"Feature","properties":{"Name":"\r\nローソン 神宮前六丁目店\r\n","Address":"東京都渋谷区神宮前6-28-3"},"geometry":{"type":"Point","coordinates":[139.7041711,35.6673958]}},{"type":"Feature","properties":{"Name":"\r\nローソンサテライト AbemaTowers店\r\n","Address":"東京都渋谷区宇田川町40-1AbemaTowers11階"},"geometry":{"type":"Point","coordinates":[139.6961231,35.6621751]}},{"type":"Feature","properties":{"Name":"\r\nローソン メトロス渋谷店\r\n","Address":"東京都渋谷区道玄坂1-1-1"},"geometry":{"type":"Point","coordinates":[139.7009081,35.6586951]}},{"type":"Feature","properties":{"Name":"\r\nLAWSON+toks渋谷スクランブルスクエア店\r\n","Address":"東京都渋谷区渋谷2-24-12"},"geometry":{"type":"Point","coordinates":[139.7022323,35.6583189]}},{"type":"Feature","properties":{"Name":"\r\nローソンサテライト +toks渋谷スクランブルスクエア2号店\r\n","Address":"東京都渋谷区渋谷2-24-12"},"geometry":{"type":"Point","coordinates":[139.7022323,35.6583189]}},{"type":"Feature","properties":{"Name":"\r\nローソン リンクスクエア新宿3階店\r\n","Address":"東京都渋谷区千駄ヶ谷5-27-5"},"geometry":{"type":"Point","coordinates":[139.7028382,35.6865275]}},{"type":"Feature","properties":{"Name":"\r\nローソン 渋谷千駄ケ谷五丁目店\r\n","Address":"東京都渋谷区千駄ヶ谷5-27-5"},"geometry":{"type":"Point","coordinates":[139.7028382,35.6865275]}},{"type":"Feature","properties":{"Name":"\r\nローソン 神宮前三丁目店\r\n","Address":"東京都渋谷区神宮前3-3-8ラグラシア表参道1階"},"geometry":{"type":"Point","coordinates":[139.7127232,35.6690615]}},{"type":"Feature","properties":{"Name":"\r\nファミリーマート 渋谷円山町店\r\n","Address":"東京都渋谷区円山町6-3"},"geometry":{"type":"Point","coordinates":[139.695155,35.6573436]}},{"type":"Feature","properties":{"Name":"\r\nファミリーマート 代々木一丁目店\r\n","Address":"東京都渋谷区代々木1-57-2"},"geometry":{"type":"Point","coordinates":[139.7014015,35.68513799999999]}},{"type":"Feature","properties":{"Name":"\r\nファミリーマート 山野学苑店\r\n","Address":"東京都渋谷区代々木1丁目53-1"},"geometry":{"type":"Point","coordinates":[139.6999519,35.6841863]}},{"type":"Feature","properties":{"Name":"\r\nファミリーマート バスタ新宿店\r\n","Address":"東京都渋谷区千駄ヶ谷5丁目24番55号"},"geometry":{"type":"Point","coordinates":[139.7006979,35.6884017]}},{"type":"Feature","properties":{"Name":"\r\nファミリーマート 代々木上原駅前店\r\n","Address":"東京都渋谷区西原3-11-7"},"geometry":{"type":"Point","coordinates":[139.6801832,35.669577]}},{"type":"Feature","properties":{"Name":"\r\nファミリーマート 恵比寿ガーデンプレイス店\r\n","Address":"東京都渋谷区恵比寿4-20-3恵比寿ガーデンプレイスタワー1階"},"geometry":{"type":"Point","coordinates":[139.713487,35.642145]}},{"type":"Feature","properties":{"Name":"\r\nファミリーマート 初台駅北口店\r\n","Address":"東京都渋谷区本町1-4-15"},"geometry":{"type":"Point","coordinates":[139.685417,35.6814652]}},{"type":"Feature","properties":{"Name":"\r\nファミリーマート 笹塚二丁目店\r\n","Address":"東京都渋谷区笹塚2-22-5"},"geometry":{"type":"Point","coordinates":[139.663881,35.6737509]}},{"type":"Feature","properties":{"Name":"\r\nファミリーマート 神南一丁目店\r\n","Address":"東京都渋谷区神南1丁目20-5NAVI渋谷"},"geometry":{"type":"Point","coordinates":[139.700156,35.66167]}},{"type":"Feature","properties":{"Name":"\r\nファミリーマート 渋谷一丁目店\r\n","Address":"東京都渋谷区渋谷1-24-6マトリクスツービル"},"geometry":{"type":"Point","coordinates":[139.7020131,35.6608042]}},{"type":"Feature","properties":{"Name":"\r\nファミリーマート 宮益坂上店\r\n","Address":"東京都渋谷区渋谷1-7-5青山セブンハイツ"},"geometry":{"type":"Point","coordinates":[139.7063351,35.6606834]}},{"type":"Feature","properties":{"Name":"\r\nファミリーマート スバル渋谷センター街店\r\n","Address":"東京都渋谷区宇田川町25-4ダッキ-プラザ"},"geometry":{"type":"Point","coordinates":[139.6989945,35.6603176]}},{"type":"Feature","properties":{"Name":"\r\nファミリーマート メトロ恵比寿駅前店\r\n","Address":"東京都渋谷区恵比寿西1丁目7-4エビス・ファースト・ビル"},"geometry":{"type":"Point","coordinates":[139.7089482,35.6477646]}},{"type":"Feature","properties":{"Name":"\r\nファミリーマート 上原三丁目店\r\n","Address":"東京都渋谷区上原3丁目6-6オークハウス1F"},"geometry":{"type":"Point","coordinates":[139.6792333,35.6678094]}},{"type":"Feature","properties":{"Name":"\r\nファミリーマート 道玄坂中央店\r\n","Address":"東京都渋谷区道玄坂2丁目11-1G SQUARE"},"geometry":{"type":"Point","coordinates":[139.6961292,35.6579887]}},{"type":"Feature","properties":{"Name":"\r\nファミリーマート 渋谷ガーデンフロント店\r\n","Address":"東京都渋谷区渋谷3丁目26-3渋谷ガーデンフロント"},"geometry":{"type":"Point","coordinates":[139.7053787,35.6554225]}},{"type":"Feature","properties":{"Name":"\r\nファミリーマート 原宿ストリート店\r\n","Address":"東京都渋谷区神宮前3丁目21-21"},"geometry":{"type":"Point","coordinates":[139.7075436,35.6706831]}},{"type":"Feature","properties":{"Name":"\r\nファミリーマート スバル桜丘246店\r\n","Address":"東京都渋谷区桜丘町31-15"},"geometry":{"type":"Point","coordinates":[139.6981537,35.6560829]}},{"type":"Feature","properties":{"Name":"\r\nファミリーマート 渋谷109前店\r\n","Address":"東京都渋谷区宇田川町26-4"},"geometry":{"type":"Point","coordinates":[139.6988938,35.6599784]}},{"type":"Feature","properties":{"Name":"\r\nファミリーマート 原宿神宮前店\r\n","Address":"東京都渋谷区神宮前3丁目20-9"},"geometry":{"type":"Point","coordinates":[139.7081517,35.6698248]}},{"type":"Feature","properties":{"Name":"\r\nファミリーマート 渋谷松濤一丁目店\r\n","Address":"東京都渋谷区松濤1丁目29-1渋谷クロスロードビル1F"},"geometry":{"type":"Point","coordinates":[139.6952692,35.6600893]}},{"type":"Feature","properties":{"Name":"\r\nファミリーマート 千駄ヶ谷二丁目店\r\n","Address":"東京都渋谷区千駄ケ谷2-6-7"},"geometry":{"type":"Point","coordinates":[139.7090144,35.6753391]}},{"type":"Feature","properties":{"Name":"\r\nファミリーマート 代官山店\r\n","Address":"東京都渋谷区猿楽町17-9"},"geometry":{"type":"Point","coordinates":[139.6993223,35.6491777]}},{"type":"Feature","properties":{"Name":"\r\nファミリーマート 代々木二丁目北店\r\n","Address":"東京都渋谷区代々木2丁目20-17 海南ビル"},"geometry":{"type":"Point","coordinates":[139.6971402,35.6866569]}},{"type":"Feature","properties":{"Name":"\r\nファミリーマート 代々木駅西店\r\n","Address":"東京都渋谷区代々木1-30-3メイプルビル代々木"},"geometry":{"type":"Point","coordinates":[139.7018653,35.6819597]}},{"type":"Feature","properties":{"Name":"\r\nファミリーマート 渋谷本町一丁目店\r\n","Address":"東京都渋谷区本町1丁目16-3"},"geometry":{"type":"Point","coordinates":[139.6813195,35.6790036]}},{"type":"Feature","properties":{"Name":"\r\nファミリーマート 神宮前三丁目店\r\n","Address":"東京都渋谷区神宮前3丁目7-7 金井ビル"},"geometry":{"type":"Point","coordinates":[139.7135178,35.6705623]}},{"type":"Feature","properties":{"Name":"\r\nファミリーマート 表参道南店\r\n","Address":"東京都渋谷区神宮前5丁目12-14"},"geometry":{"type":"Point","coordinates":[139.7068921,35.6667189]}},{"type":"Feature","properties":{"Name":"\r\nファミリーマート 代官山駅前店\r\n","Address":"東京都渋谷区恵比寿西1丁目35-17Gビル代官山01"},"geometry":{"type":"Point","coordinates":[139.7028922,35.647689]}},{"type":"Feature","properties":{"Name":"\r\nファミリーマート 南新宿駅前店\r\n","Address":"東京都渋谷区代々木2丁目29-14"},"geometry":{"type":"Point","coordinates":[139.6987757,35.68401619999999]}},{"type":"Feature","properties":{"Name":"\r\nファミリーマート 渋谷キャットストリート店\r\n","Address":"東京都渋谷区渋谷1丁目22-10 第2東邦ビル"},"geometry":{"type":"Point","coordinates":[139.7026758,35.6632067]}},{"type":"Feature","properties":{"Name":"\r\nファミリーマート 恵比寿南三丁目店\r\n","Address":"東京都渋谷区恵比寿南3丁目5-7"},"geometry":{"type":"Point","coordinates":[139.7038114,35.6462606]}},{"type":"Feature","properties":{"Name":"\r\nファミリーマート 渋谷公園通り店\r\n","Address":"東京都渋谷区宇田川町3-3"},"geometry":{"type":"Point","coordinates":[139.6989776,35.6629509]}},{"type":"Feature","properties":{"Name":"\r\nファミリーマート 宮益坂下店\r\n","Address":"東京都渋谷区渋谷2丁目20-11 小寺ビル1F"},"geometry":{"type":"Point","coordinates":[139.7030344,35.6595204]}},{"type":"Feature","properties":{"Name":"\r\nファミリーマート 渋谷東二丁目店\r\n","Address":"東京都渋谷区東2丁目17-10 岡本LKビル"},"geometry":{"type":"Point","coordinates":[139.7090953,35.6524695]}},{"type":"Feature","properties":{"Name":"\r\nファミリーマート 新宿マインズタワー店\r\n","Address":"東京都渋谷区代々木2丁目1-1 新宿マインズタワー"},"geometry":{"type":"Point","coordinates":[139.6988507,35.6865412]}},{"type":"Feature","properties":{"Name":"\r\nファミリーマート 幡ヶ谷駅北口店\r\n","Address":"東京都渋谷区幡ヶ谷2丁目13-4 豊生ビル"},"geometry":{"type":"Point","coordinates":[139.6767312,35.6774939]}},{"type":"Feature","properties":{"Name":"\r\nファミリーマート 笹塚三丁目北店\r\n","Address":"東京都渋谷区笹塚3丁目58-22 メゾン内山"},"geometry":{"type":"Point","coordinates":[139.6663725,35.6778202]}},{"type":"Feature","properties":{"Name":"\r\nファミリーマート 渋谷警察東店\r\n","Address":"東京都渋谷区渋谷3丁目6-3 清水ビル"},"geometry":{"type":"Point","coordinates":[139.7052055,35.6578698]}},{"type":"Feature","properties":{"Name":"\r\nファミリーマート 渋谷東急本店前店\r\n","Address":"東京都渋谷区宇田川町34-3 サイトービル3"},"geometry":{"type":"Point","coordinates":[139.6964967,35.6610152]}},{"type":"Feature","properties":{"Name":"\r\nファミリーマート 原宿竹下口店\r\n","Address":"東京都渋谷区神宮前1丁目19-11"},"geometry":{"type":"Point","coordinates":[139.7032787,35.6718402]}},{"type":"Feature","properties":{"Name":"\r\nファミリーマート 参宮橋駅前店\r\n","Address":"東京都渋谷区代々木4丁目2-3"},"geometry":{"type":"Point","coordinates":[139.693355,35.6788145]}},{"type":"Feature","properties":{"Name":"\r\nファミリーマート 渋谷神山町店\r\n","Address":"東京都渋谷区神山町7-13"},"geometry":{"type":"Point","coordinates":[139.6934344,35.6644539]}},{"type":"Feature","properties":{"Name":"\r\nファミリーマート 渋谷明治通り店\r\n","Address":"東京都渋谷区渋谷3-12-22"},"geometry":{"type":"Point","coordinates":[139.7057195,35.6563963]}},{"type":"Feature","properties":{"Name":"\r\nファミリーマート 恵比寿一丁目店\r\n","Address":"東京都渋谷区恵比寿1丁目24-16"},"geometry":{"type":"Point","coordinates":[139.715069,35.6469538]}},{"type":"Feature","properties":{"Name":"\r\nファミリーマート 恵比寿南一丁目店\r\n","Address":"東京都渋谷区恵比寿南1-14-15ラレンヌ恵比寿"},"geometry":{"type":"Point","coordinates":[139.7097102,35.6457012]}},{"type":"Feature","properties":{"Name":"\r\nファミリーマート 道玄坂二丁目店\r\n","Address":"東京都渋谷区道玄坂2丁目6-15"},"geometry":{"type":"Point","coordinates":[139.698574,35.6590687]}},{"type":"Feature","properties":{"Name":"\r\nファミリーマート 表参道中央店\r\n","Address":"東京都渋谷区神宮前6丁目9-1"},"geometry":{"type":"Point","coordinates":[139.705365,35.6671834]}},{"type":"Feature","properties":{"Name":"\r\nファミリーマート 渋谷神南北谷公園前店\r\n","Address":"東京都渋谷区神南1丁目13-14 高野ビル"},"geometry":{"type":"Point","coordinates":[139.6999723,35.6640262]}},{"type":"Feature","properties":{"Name":"\r\nファミリーマート 道玄坂上店\r\n","Address":"東京都渋谷区円山町28-1トウセン道玄坂第2ビル"},"geometry":{"type":"Point","coordinates":[139.6949083,35.6560133]}},{"type":"Feature","properties":{"Name":"\r\nファミリーマート 渋谷文化学園大前店\r\n","Address":"東京都渋谷区代々木3丁目24-3"},"geometry":{"type":"Point","coordinates":[139.6929153,35.6852129]}},{"type":"Feature","properties":{"Name":"\r\nファミリーマート 原宿駅東店\r\n","Address":"東京都渋谷区神宮前1丁目13番17号シャンゼール原宿2号館 B1F"},"geometry":{"type":"Point","coordinates":[139.7034869,35.6695903]}},{"type":"Feature","properties":{"Name":"\r\nファミリーマート 渋谷二丁目中央店\r\n","Address":"東京都渋谷区渋谷2丁目11番3号"},"geometry":{"type":"Point","coordinates":[139.7073826,35.6599075]}},{"type":"Feature","properties":{"Name":"\r\nファミリーマート 神宮前五丁目南店\r\n","Address":"東京都渋谷区神宮前5丁目1番9号"},"geometry":{"type":"Point","coordinates":[139.7096209,35.6653942]}},{"type":"Feature","properties":{"Name":"\r\nファミリーマート 薬ヒグチ恵比寿アメリカ橋店\r\n","Address":"東京都渋谷区恵比寿南1丁目24-2EBISUFORT"},"geometry":{"type":"Point","coordinates":[139.711519,35.643209]}},{"type":"Feature","properties":{"Name":"\r\nファミリーマート 幡ヶ谷三丁目店\r\n","Address":"東京都渋谷区幡ヶ谷3丁目19番2号"},"geometry":{"type":"Point","coordinates":[139.6750273,35.6794149]}},{"type":"Feature","properties":{"Name":"\r\nファミリーマート 渋谷消防署南店\r\n","Address":"東京都渋谷区神南1丁目12番10号"},"geometry":{"type":"Point","coordinates":[139.7010172,35.6637147]}},{"type":"Feature","properties":{"Name":"\r\nファミリーマート 渋谷本町店\r\n","Address":"東京都渋谷区本町2丁目2-2"},"geometry":{"type":"Point","coordinates":[139.6849364,35.6838319]}},{"type":"Feature","properties":{"Name":"\r\nファミリーマート 渋谷富ヶ谷一丁目店\r\n","Address":"東京都渋谷区富ヶ谷1丁目13-9"},"geometry":{"type":"Point","coordinates":[139.6911442,35.6674327]}},{"type":"Feature","properties":{"Name":"\r\nファミリーマート 新宿甲州街道店\r\n","Address":"東京都渋谷区代々木2丁目11-17ラウンドクロス新宿"},"geometry":{"type":"Point","coordinates":[139.69724,35.6875751]}},{"type":"Feature","properties":{"Name":"\r\nファミリーマート 北参道駅前店\r\n","Address":"東京都渋谷区千駄ヶ谷3丁目39番1号北参道サンイーストテラス1階"},"geometry":{"type":"Point","coordinates":[139.7060757,35.6780209]}},{"type":"Feature","properties":{"Name":"\r\nファミリーマート 神宮前店\r\n","Address":"東京都渋谷区神宮前6-17-10"},"geometry":{"type":"Point","coordinates":[139.7033198,35.6652724]}},{"type":"Feature","properties":{"Name":"\r\nファミリーマート 渋谷桜丘町店\r\n","Address":"東京都渋谷区桜丘町24-1橋本ビル"},"geometry":{"type":"Point","coordinates":[139.7008499,35.6569205]}},{"type":"Feature","properties":{"Name":"\r\nファミリーマート 幡ヶ谷本町店\r\n","Address":"東京都渋谷区本町4丁目45番2号"},"geometry":{"type":"Point","coordinates":[139.6776358,35.6855895]}},{"type":"Feature","properties":{"Name":"\r\nファミリーマート 恵比寿一丁目東店\r\n","Address":"東京都渋谷区恵比寿1丁目25番6号"},"geometry":{"type":"Point","coordinates":[139.7164842,35.6470078]}},{"type":"Feature","properties":{"Name":"\r\nファミリーマート 渋谷笹塚一丁目店\r\n","Address":"東京都渋谷区笹塚1丁目9番10号"},"geometry":{"type":"Point","coordinates":[139.6701822,35.6735611]}},{"type":"Feature","properties":{"Name":"\r\nファミリーマート 恵比寿西口店\r\n","Address":"東京都渋谷区恵比寿西1-4-4 恵比寿S2ビル"},"geometry":{"type":"Point","coordinates":[139.708259,35.648421]}},{"type":"Feature","properties":{"Name":"\r\nファミリーマート 渋谷マークシティ店\r\n","Address":"東京都渋谷区道玄坂1-12-5"},"geometry":{"type":"Point","coordinates":[139.6973389,35.6577383]}},{"type":"Feature","properties":{"Name":"\r\nファミリーマート 代々木東口店\r\n","Address":"東京都渋谷区千駄ヶ谷5-20-12"},"geometry":{"type":"Point","coordinates":[139.7031751,35.6833465]}},{"type":"Feature","properties":{"Name":"\r\nファミリーマート 恵比寿駅東店\r\n","Address":"東京都渋谷区恵比寿1-19-23"},"geometry":{"type":"Point","coordinates":[139.712832,35.6471227]}},{"type":"Feature","properties":{"Name":"\r\nファミリーマート 渋谷本町三丁目店\r\n","Address":"東京都渋谷区本町3-41-11"},"geometry":{"type":"Point","coordinates":[139.68081,35.6882693]}},{"type":"Feature","properties":{"Name":"\r\nファミリーマート 恵比寿駅南店\r\n","Address":"東京都渋谷区恵比寿南1丁目20-11"},"geometry":{"type":"Point","coordinates":[139.7099893,35.6440572]}},{"type":"Feature","properties":{"Name":"\r\nファミリーマート 渋谷NHK前店\r\n","Address":"東京都渋谷区神山町6-4 ラビアンヌビル1階"},"geometry":{"type":"Point","coordinates":[139.6941487,35.6646983]}},{"type":"Feature","properties":{"Name":"\r\nファミリーマート 代々木三丁目店\r\n","Address":"東京都渋谷区代々木3丁目29番3号"},"geometry":{"type":"Point","coordinates":[139.6933555,35.6847529]}},{"type":"Feature","properties":{"Name":"\r\nファミリーマート 神宮前二丁目店\r\n","Address":"東京都渋谷区神宮前2丁目32-1"},"geometry":{"type":"Point","coordinates":[139.7088954,35.6722393]}},{"type":"Feature","properties":{"Name":"\r\nファミリーマート 渋谷三丁目店\r\n","Address":"東京都渋谷区渋谷3丁目17番2号"},"geometry":{"type":"Point","coordinates":[139.7042741,35.6567429]}},{"type":"Feature","properties":{"Name":"\r\nファミリーマート 初台交差点前店\r\n","Address":"東京都渋谷区代々木4-33-10トーシンビル1F"},"geometry":{"type":"Point","coordinates":[139.6890236,35.6818355]}},{"type":"Feature","properties":{"Name":"\r\nファミリーマート 渋谷笹塚二丁目西店\r\n","Address":"東京都渋谷区笹塚2丁目25-6"},"geometry":{"type":"Point","coordinates":[139.6626731,35.6734985]}},{"type":"Feature","properties":{"Name":"\r\nファミリーマート 渋谷道玄坂店\r\n","Address":"東京都渋谷区道玄坂1-19-9"},"geometry":{"type":"Point","coordinates":[139.6958758,35.6567471]}},{"type":"Feature","properties":{"Name":"\r\nファミリーマート 恵比寿神社前店\r\n","Address":"東京都渋谷区恵比寿西1丁目9-1"},"geometry":{"type":"Point","coordinates":[139.7082438,35.6472567]}},{"type":"Feature","properties":{"Name":"\r\nファミリーマート 代々木四丁目店\r\n","Address":"東京都渋谷区代々木4丁目31-6 西新宿松屋ビル"},"geometry":{"type":"Point","coordinates":[139.6893459,35.6828512]}},{"type":"Feature","properties":{"Name":"\r\nファミリーマート 千駄ヶ谷五丁目店\r\n","Address":"東京都渋谷区千駄ヶ谷5丁目14番10号"},"geometry":{"type":"Point","coordinates":[139.7041201,35.6845157]}},{"type":"Feature","properties":{"Name":"\r\nファミリーマート 渋谷宇田川交番前店\r\n","Address":"東京都渋谷区宇田川町32-15"},"geometry":{"type":"Point","coordinates":[139.6977784,35.6609219]}},{"type":"Feature","properties":{"Name":"\r\nファミリーマート 神宮前五丁目店\r\n","Address":"東京都渋谷区神宮前5丁目29-7"},"geometry":{"type":"Point","coordinates":[139.7031661,35.6641864]}},{"type":"Feature","properties":{"Name":"\r\nファミリーマート 新宿駅南店\r\n","Address":"東京都渋谷区代々木2丁目7-5"},"geometry":{"type":"Point","coordinates":[139.6995425,35.6877395]}},{"type":"Feature","properties":{"Name":"\r\nファミリーマート 代々木駅前店\r\n","Address":"東京都渋谷区代々木1丁目38-5"},"geometry":{"type":"Point","coordinates":[139.7015707,35.6829749]}},{"type":"Feature","properties":{"Name":"\r\nファミリーマート 恵比寿四丁目店\r\n","Address":"東京都渋谷区恵比寿4丁目9-11"},"geometry":{"type":"Point","coordinates":[139.7142642,35.6457618]}},{"type":"Feature","properties":{"Name":"\r\nファミリーマート 恵比寿二丁目店\r\n","Address":"東京都渋谷区恵比寿2丁目29-2"},"geometry":{"type":"Point","coordinates":[139.7216572,35.645102]}},{"type":"Feature","properties":{"Name":"\r\nファミリーマート 渋谷二丁目店\r\n","Address":"東京都渋谷区渋谷2丁目9-9"},"geometry":{"type":"Point","coordinates":[139.7072453,35.6606535]}},{"type":"Feature","properties":{"Name":"\r\nファミリーマート 幡ヶ谷駅南店\r\n","Address":"東京都渋谷区西原2丁目31-5"},"geometry":{"type":"Point","coordinates":[139.677179,35.6761141]}},{"type":"Feature","properties":{"Name":"\r\nファミリーマート 渋谷クロスタワー店\r\n","Address":"東京都渋谷区渋谷2丁目15-1"},"geometry":{"type":"Point","coordinates":[139.7053308,35.6587709]}},{"type":"Feature","properties":{"Name":"\r\nファミリーマート 道玄坂センタービル店\r\n","Address":"東京都渋谷区道玄坂2丁目29-8"},"geometry":{"type":"Point","coordinates":[139.6979318,35.6592352]}},{"type":"Feature","properties":{"Name":"\r\nファミリーマート 青山オーバルビル店\r\n","Address":"東京都渋谷区神宮前5丁目52-2"},"geometry":{"type":"Point","coordinates":[139.708959,35.6627037]}},{"type":"Feature","properties":{"Name":"\r\nファミリーマート 千駄ヶ谷鳩森店\r\n","Address":"東京都渋谷区千駄ヶ谷5丁目16-10"},"geometry":{"type":"Point","coordinates":[139.7048644,35.6823475]}},{"type":"Feature","properties":{"Name":"\r\nファミリーマート 恵比寿銀座通り店\r\n","Address":"東京都渋谷区恵比寿南1丁目4-13"},"geometry":{"type":"Point","coordinates":[139.7087294,35.6463258]}},{"type":"Feature","properties":{"Name":"\r\nコミュニティ・ストア 渋谷 まつもと店\r\n","Address":"東京都渋谷区円山町10-15"},"geometry":{"type":"Point","coordinates":[139.6943106,35.6592371]}},{"type":"Feature","properties":{"Name":"\r\nミニストップ 渋谷桜丘店\r\n","Address":"東京都渋谷区桜丘町6-6"},"geometry":{"type":"Point","coordinates":[139.7030003,35.6543251]}},{"type":"Feature","properties":{"Name":"\r\nミニストップ 千駄ヶ谷駅前店\r\n","Address":"東京都渋谷区千駄ヶ谷1-30-8 ダヴィンチ千駄ヶ谷101"},"geometry":{"type":"Point","coordinates":[139.7101699,35.6809162]}},{"type":"Feature","properties":{"Name":"\r\nミニストップ 道玄坂2丁目店\r\n","Address":"東京都渋谷区道玄坂2-6-11"},"geometry":{"type":"Point","coordinates":[139.6986424,35.6588226]}},{"type":"Feature","properties":{"Name":"\r\nミニストップ 千駄ヶ谷4丁目店\r\n","Address":"東京都渋谷区千駄ヶ谷4丁目24-13"},"geometry":{"type":"Point","coordinates":[139.7055513,35.6805044]}},{"type":"Feature","properties":{"Name":"\r\nミニストップ 代々木2丁目店\r\n","Address":"東京都渋谷区代々木2-16-2"},"geometry":{"type":"Point","coordinates":[139.6957548,35.6863899]}},{"type":"Feature","properties":{"Name":"\r\nミニストップ 広尾1丁目店\r\n","Address":"東京都渋谷区広尾1丁目14-15"},"geometry":{"type":"Point","coordinates":[139.7148224,35.6480803]}},{"type":"Feature","properties":{"Name":"\r\nミニストップ 千駄ヶ谷3丁目店\r\n","Address":"東京都渋谷区千駄ヶ谷3丁目16-5"},"geometry":{"type":"Point","coordinates":[139.7067742,35.6758662]}},{"type":"Feature","properties":{"Name":"\r\nミニストップ 恵比寿駅東口店\r\n","Address":"東京都渋谷区恵比寿4-3-1"},"geometry":{"type":"Point","coordinates":[139.7111746,35.6460302]}},{"type":"Feature","properties":{"Name":"\r\nミニストップ 神宮前2丁目店\r\n","Address":"東京都渋谷区神宮前2-12-2"},"geometry":{"type":"Point","coordinates":[139.7123571,35.6741149]}},{"type":"Feature","properties":{"Name":"\r\nミニストップ 渋谷本町6丁目店\r\n","Address":"東京都渋谷区本町6-35-4"},"geometry":{"type":"Point","coordinates":[139.6769333,35.6800937]}},{"type":"Feature","properties":{"Name":"\r\nミニストップ 神宮前1丁目店\r\n","Address":"東京都渋谷区神宮前1丁目8-8"},"geometry":{"type":"Point","coordinates":[139.7060469,35.6700635]}},{"type":"Feature","properties":{"Name":"\r\nセブンイレブン 渋谷恵比寿南3丁目店\r\n","Address":"東京都渋谷区恵比寿南3-2-17"},"geometry":{"type":"Point","coordinates":[139.7052077,35.6461718]}},{"type":"Feature","properties":{"Name":"\r\nセブンイレブン 神山店\r\n","Address":"東京都渋谷区神山町24-3"},"geometry":{"type":"Point","coordinates":[139.6879189,35.6627044]}},{"type":"Feature","properties":{"Name":"\r\nセブンイレブン 渋谷本町2丁目店\r\n","Address":"東京都渋谷区本町2ー12ー3"},"geometry":{"type":"Point","coordinates":[139.6814998,35.6831864]}},{"type":"Feature","properties":{"Name":"\r\nセブンイレブン 渋谷円山町店\r\n","Address":"東京都渋谷区円山町1ー19"},"geometry":{"type":"Point","coordinates":[139.6952836,35.6597717]}},{"type":"Feature","properties":{"Name":"\r\nセブンイレブン 渋谷区渋谷2の南店\r\n","Address":"東京都渋谷区渋谷2-12-12"},"geometry":{"type":"Point","coordinates":[139.7082788,35.6586402]}},{"type":"Feature","properties":{"Name":"\r\nセブンイレブン 渋谷上原2丁目店\r\n","Address":"東京都渋谷区上原2-28-3"},"geometry":{"type":"Point","coordinates":[139.6825335,35.6632889]}},{"type":"Feature","properties":{"Name":"\r\nセブンイレブン 渋谷恵比寿1丁目店\r\n","Address":"東京都渋谷区恵比寿1-18-13"},"geometry":{"type":"Point","coordinates":[139.7147712,35.6472184]}},{"type":"Feature","properties":{"Name":"\r\nセブンイレブン 渋谷桜丘東店\r\n","Address":"東京都渋谷区桜丘町4-14"},"geometry":{"type":"Point","coordinates":[139.7041755,35.6545033]}},{"type":"Feature","properties":{"Name":"\r\nセブンイレブン 渋谷千駄ヶ谷3丁目店\r\n","Address":"東京都渋谷区千駄ヶ谷3-23-10"},"geometry":{"type":"Point","coordinates":[139.708247,35.6766505]}},{"type":"Feature","properties":{"Name":"\r\nセブンイレブン 渋谷笹塚2丁目店\r\n","Address":"東京都渋谷区笹塚2-15-1"},"geometry":{"type":"Point","coordinates":[139.666614,35.674462]}},{"type":"Feature","properties":{"Name":"\r\nセブンイレブン 渋谷本町店\r\n","Address":"東京都渋谷区本町5-44-7"},"geometry":{"type":"Point","coordinates":[139.6742318,35.6828531]}},{"type":"Feature","properties":{"Name":"\r\nセブンイレブン 上原店\r\n","Address":"東京都渋谷区上原1-3-4"},"geometry":{"type":"Point","coordinates":[139.687085,35.6682745]}},{"type":"Feature","properties":{"Name":"\r\nセブンイレブン 渋谷金王坂上店\r\n","Address":"東京都渋谷区渋谷2-10-13"},"geometry":{"type":"Point","coordinates":[139.7064715,35.6601927]}},{"type":"Feature","properties":{"Name":"\r\nセブンイレブン 元代々木町店\r\n","Address":"東京都渋谷区元代々木町7-1"},"geometry":{"type":"Point","coordinates":[139.6862695,35.6700866]}},{"type":"Feature","properties":{"Name":"\r\nセブンイレブン 渋谷本町4丁目店\r\n","Address":"東京都渋谷区本町4-19-4"},"geometry":{"type":"Point","coordinates":[139.6797173,35.6882774]}},{"type":"Feature","properties":{"Name":"\r\nセブンイレブン 渋谷広尾5丁目店\r\n","Address":"東京都渋谷区広尾5-8-18"},"geometry":{"type":"Point","coordinates":[139.7207962,35.6483519]}},{"type":"Feature","properties":{"Name":"\r\nセブンイレブン 渋谷代々木2丁目店\r\n","Address":"東京都渋谷区代々木2-23-1"},"geometry":{"type":"Point","coordinates":[139.6981445,35.6857125]}},{"type":"Feature","properties":{"Name":"\r\nセブンイレブン 神宮前店\r\n","Address":"東京都渋谷区神宮前4-8-1"},"geometry":{"type":"Point","coordinates":[139.7117747,35.6682381]}},{"type":"Feature","properties":{"Name":"\r\nセブンイレブン 渋谷幡ヶ谷駅前店\r\n","Address":"東京都渋谷区幡ヶ谷2-14-9"},"geometry":{"type":"Point","coordinates":[139.6760419,35.6774835]}},{"type":"Feature","properties":{"Name":"\r\nセブンイレブン 渋谷代々木1丁目南店\r\n","Address":"東京都渋谷区代々木1-30-1"},"geometry":{"type":"Point","coordinates":[139.7017657,35.68225899999999]}},{"type":"Feature","properties":{"Name":"\r\nセブンイレブン 広尾駅前店\r\n","Address":"東京都渋谷区広尾5-5-2"},"geometry":{"type":"Point","coordinates":[139.7221032,35.6505533]}},{"type":"Feature","properties":{"Name":"\r\nセブンイレブン 原宿竹下通り店\r\n","Address":"東京都渋谷区神宮前1-6-12"},"geometry":{"type":"Point","coordinates":[139.7052779,35.6710695]}},{"type":"Feature","properties":{"Name":"\r\nセブンイレブン 渋谷宇田川町北店\r\n","Address":"東京都渋谷区宇田川町37-11"},"geometry":{"type":"Point","coordinates":[139.6955565,35.6622503]}},{"type":"Feature","properties":{"Name":"\r\nセブンイレブン 渋谷東3丁目店\r\n","Address":"東京都渋谷区東3ー15ー4"},"geometry":{"type":"Point","coordinates":[139.7091366,35.6508164]}},{"type":"Feature","properties":{"Name":"\r\nセブンイレブン 渋谷笹塚駅前店\r\n","Address":"東京都渋谷区笹塚1-57-22"},"geometry":{"type":"Point","coordinates":[139.6666806,35.6737519]}},{"type":"Feature","properties":{"Name":"\r\nセブンイレブン 渋谷本町3丁目店\r\n","Address":"東京都渋谷区本町3-1-1"},"geometry":{"type":"Point","coordinates":[139.6850614,35.6866043]}},{"type":"Feature","properties":{"Name":"\r\nセブンイレブン 恵比寿駅東口店\r\n","Address":"東京都渋谷区恵比寿1-7-9"},"geometry":{"type":"Point","coordinates":[139.7105334,35.6480133]}},{"type":"Feature","properties":{"Name":"\r\nセブンイレブン 渋谷桜丘店\r\n","Address":"東京都渋谷区桜丘町18-6"},"geometry":{"type":"Point","coordinates":[139.7008581,35.6558774]}},{"type":"Feature","properties":{"Name":"\r\nセブンイレブン 渋谷神宮前2丁目西店\r\n","Address":"東京都渋谷区神宮前2-25-5"},"geometry":{"type":"Point","coordinates":[139.710583,35.6741734]}},{"type":"Feature","properties":{"Name":"\r\nセブンイレブン 渋谷1丁目店\r\n","Address":"東京都渋谷区渋谷1-11-6"},"geometry":{"type":"Point","coordinates":[139.7045008,35.6608626]}},{"type":"Feature","properties":{"Name":"\r\nセブンイレブン 渋谷3丁目明治通り店\r\n","Address":"東京都渋谷区渋谷3-13-5"},"geometry":{"type":"Point","coordinates":[139.7064216,35.65576009999999]}},{"type":"Feature","properties":{"Name":"\r\nセブンイレブン 千駄ケ谷店\r\n","Address":"東京都渋谷区千駄ケ谷4-21-5"},"geometry":{"type":"Point","coordinates":[139.7066565,35.6799795]}},{"type":"Feature","properties":{"Name":"\r\nセブンイレブン 代々木3丁目店\r\n","Address":"東京都渋谷区代々木3-26-2"},"geometry":{"type":"Point","coordinates":[139.6918354,35.6844532]}},{"type":"Feature","properties":{"Name":"\r\nセブンイレブン 新宿駅西店\r\n","Address":"東京都渋谷区代々木2-10-1"},"geometry":{"type":"Point","coordinates":[139.698399,35.6880721]}},{"type":"Feature","properties":{"Name":"\r\nセブンイレブン 渋谷南平台町店\r\n","Address":"東京都渋谷区南平台町16-28"},"geometry":{"type":"Point","coordinates":[139.6949281,35.6549049]}},{"type":"Feature","properties":{"Name":"\r\nセブンイレブン 渋谷神南1丁目店\r\n","Address":"東京都渋谷区神南1丁目11-5"},"geometry":{"type":"Point","coordinates":[139.7011295,35.6625432]}},{"type":"Feature","properties":{"Name":"\r\nセブンイレブン 渋谷オペラ通り店\r\n","Address":"東京都渋谷区本町1-53-11"},"geometry":{"type":"Point","coordinates":[139.6843589,35.6828556]}},{"type":"Feature","properties":{"Name":"\r\nセブンイレブン 恵比寿アメリカ橋店\r\n","Address":"東京都渋谷区恵比寿南1-25-1"},"geometry":{"type":"Point","coordinates":[139.7118792,35.6428291]}},{"type":"Feature","properties":{"Name":"\r\nセブンイレブン 渋谷3丁目六本木通り店\r\n","Address":"東京都渋谷区渋谷3-6-1 イースト渋谷ビル1F"},"geometry":{"type":"Point","coordinates":[139.7048391,35.6579131]}},{"type":"Feature","properties":{"Name":"\r\nセブンイレブン 渋谷セルリアンタワー店\r\n","Address":"東京都渋谷区桜丘町26-1"},"geometry":{"type":"Point","coordinates":[139.6993541,35.6564093]}},{"type":"Feature","properties":{"Name":"\r\nセブンイレブン 渋谷道玄坂2丁目店\r\n","Address":"東京都渋谷区道玄坂2-11-4"},"geometry":{"type":"Point","coordinates":[139.6960364,35.6577217]}},{"type":"Feature","properties":{"Name":"\r\nセブンイレブン 北参道駅前店\r\n","Address":"東京都渋谷区千駄ヶ谷3-33-6"},"geometry":{"type":"Point","coordinates":[139.7064951,35.6772953]}},{"type":"Feature","properties":{"Name":"\r\nセブンイレブン 渋谷東4丁目店\r\n","Address":"東京都渋谷区東4-8-1"},"geometry":{"type":"Point","coordinates":[139.7135862,35.6555356]}},{"type":"Feature","properties":{"Name":"\r\nセブンイレブン 渋谷代々木公園店\r\n","Address":"東京都渋谷区富ヶ谷1丁目19-4"},"geometry":{"type":"Point","coordinates":[139.6920918,35.6658718]}},{"type":"Feature","properties":{"Name":"\r\nセブンイレブン 渋谷笹塚東店\r\n","Address":"東京都渋谷区幡ヶ谷1-11-11"},"geometry":{"type":"Point","coordinates":[139.6718945,35.674207]}},{"type":"Feature","properties":{"Name":"\r\nセブンイレブン 渋谷千駄ヶ谷1丁目店\r\n","Address":"東京都渋谷区千駄ヶ谷1丁目20-1"},"geometry":{"type":"Point","coordinates":[139.7106069,35.6794748]}},{"type":"Feature","properties":{"Name":"\r\nセブンイレブン 代々木上原駅前店\r\n","Address":"東京都渋谷区西原3ー7ー3"},"geometry":{"type":"Point","coordinates":[139.6811135,35.6699862]}},{"type":"Feature","properties":{"Name":"\r\nセブンイレブン 渋谷上原3丁目店\r\n","Address":"東京都渋谷区上原3-15-2"},"geometry":{"type":"Point","coordinates":[139.678502,35.6653557]}},{"type":"Feature","properties":{"Name":"\r\nセブンイレブン 渋谷東1丁目店\r\n","Address":"東京都渋谷区東1丁目25-2"},"geometry":{"type":"Point","coordinates":[139.7084438,35.6546306]}},{"type":"Feature","properties":{"Name":"\r\nセブンイレブン 渋谷道玄坂店\r\n","Address":"東京都渋谷区道玄坂2-16-4"},"geometry":{"type":"Point","coordinates":[139.696936,35.6587371]}},{"type":"Feature","properties":{"Name":"\r\nセブンイレブン 恵比寿駅北店\r\n","Address":"東京都渋谷区東3-22-14"},"geometry":{"type":"Point","coordinates":[139.708633,35.650278]}},{"type":"Feature","properties":{"Name":"\r\nセブンイレブン 原宿外苑店\r\n","Address":"東京都渋谷区千駄ヶ谷3-54"},"geometry":{"type":"Point","coordinates":[139.7055771,35.6748288]}},{"type":"Feature","properties":{"Name":"\r\nセブンイレブン 渋谷神南小学校西店\r\n","Address":"東京都渋谷区宇田川町10-2"},"geometry":{"type":"Point","coordinates":[139.6968936,35.6626255]}},{"type":"Feature","properties":{"Name":"\r\nセブンイレブン 初台店\r\n","Address":"東京都渋谷区初台2-6-9"},"geometry":{"type":"Point","coordinates":[139.6846123,35.6751279]}},{"type":"Feature","properties":{"Name":"\r\nセブンイレブン 渋谷恵比寿1丁目東店\r\n","Address":"東京都渋谷区恵比寿1-35-6"},"geometry":{"type":"Point","coordinates":[139.7164247,35.6457469]}},{"type":"Feature","properties":{"Name":"\r\nセブンイレブン 西新宿甲州街道店\r\n","Address":"東京都渋谷区代々木2-13-4"},"geometry":{"type":"Point","coordinates":[139.6963196,35.6871552]}},{"type":"Feature","properties":{"Name":"\r\nセブンイレブン 渋谷並木橋店\r\n","Address":"東京都渋谷区東1-32-12"},"geometry":{"type":"Point","coordinates":[139.7059682,35.6539073]}},{"type":"Feature","properties":{"Name":"\r\nセブンイレブン 渋谷公園通り店\r\n","Address":"東京都渋谷区宇田川町2-1"},"geometry":{"type":"Point","coordinates":[139.6985068,35.663638]}},{"type":"Feature","properties":{"Name":"\r\nセブンイレブン 渋谷原宿通り店\r\n","Address":"東京都渋谷区神宮前3-25-5"},"geometry":{"type":"Point","coordinates":[139.7081255,35.6714341]}},{"type":"Feature","properties":{"Name":"\r\nセブンイレブン 渋谷2丁目中央店\r\n","Address":"東京都渋谷区渋谷2-12-4"},"geometry":{"type":"Point","coordinates":[139.7078137,35.6593496]}},{"type":"Feature","properties":{"Name":"\r\nセブンイレブン 代々木駅北口店\r\n","Address":"東京都渋谷区代々木1-36-1"},"geometry":{"type":"Point","coordinates":[139.701268,35.6840243]}},{"type":"Feature","properties":{"Name":"\r\nセブンイレブン 笹塚店\r\n","Address":"東京都渋谷区笹塚3-41-1"},"geometry":{"type":"Point","coordinates":[139.6690566,35.6792044]}},{"type":"Feature","properties":{"Name":"\r\nセブンイレブン 渋谷駅西店\r\n","Address":"東京都渋谷区道玄坂1-3-11"},"geometry":{"type":"Point","coordinates":[139.6996431,35.658269]}},{"type":"Feature","properties":{"Name":"\r\nセブンイレブン IVYCS青山学院女子短期大学店\r\n","Address":"東京都渋谷区渋谷4丁目4番25号"},"geometry":{"type":"Point","coordinates":[139.7097494,35.6590289]}},{"type":"Feature","properties":{"Name":"\r\nセブンイレブン IVYCS青山学院大学1号館店\r\n","Address":"東京都渋谷区渋谷4丁目4番25号"},"geometry":{"type":"Point","coordinates":[139.7097494,35.6590289]}},{"type":"Feature","properties":{"Name":"\r\nセブンイレブン 原宿表参道店\r\n","Address":"東京都渋谷区神宮前4丁目2番12"},"geometry":{"type":"Point","coordinates":[139.7110019,35.6663353]}},{"type":"Feature","properties":{"Name":"\r\nセブンイレブン 渋谷恵比寿1丁目南店\r\n","Address":"東京都渋谷区恵比寿1-22-21"},"geometry":{"type":"Point","coordinates":[139.7137427,35.6463204]}},{"type":"Feature","properties":{"Name":"\r\nセブンイレブン 渋谷道玄坂中央店\r\n","Address":"東京都渋谷区道玄坂2-10-12"},"geometry":{"type":"Point","coordinates":[139.6977827,35.6583475]}},{"type":"Feature","properties":{"Name":"\r\nセブンイレブン 渋谷初台1丁目店\r\n","Address":"東京都渋谷区初台1丁目37-5"},"geometry":{"type":"Point","coordinates":[139.6868935,35.6798305]}},{"type":"Feature","properties":{"Name":"\r\nセブンイレブン 代々木イースト店\r\n","Address":"東京都渋谷区千駄ヶ谷5-23-17"},"geometry":{"type":"Point","coordinates":[139.7031725,35.68361960000001]}},{"type":"Feature","properties":{"Name":"\r\nセブンイレブン 神宮外苑西店\r\n","Address":"東京都渋谷区神宮前2丁目6番10号"},"geometry":{"type":"Point","coordinates":[139.7115316,35.6727586]}},{"type":"Feature","properties":{"Name":"\r\nセブンイレブン 渋谷笹塚駅北店\r\n","Address":"東京都渋谷区笹塚1-56-10"},"geometry":{"type":"Point","coordinates":[139.6680115,35.6742718]}},{"type":"Feature","properties":{"Name":"\r\nセブンイレブン 代々木参宮橋店\r\n","Address":"東京都渋谷区代々木4丁目10-8"},"geometry":{"type":"Point","coordinates":[139.6923398,35.6782644]}},{"type":"Feature","properties":{"Name":"\r\nセブンイレブン 笹塚2丁目10号通り店\r\n","Address":"東京都渋谷区笹塚2丁目10番5"},"geometry":{"type":"Point","coordinates":[139.6681845,35.6755213]}},{"type":"Feature","properties":{"Name":"\r\nセブンイレブン 渋谷駅東口店\r\n","Address":"東京都渋谷区渋谷3-19-1"},"geometry":{"type":"Point","coordinates":[139.7027428,35.6576595]}},{"type":"Feature","properties":{"Name":"\r\nセブンイレブン 渋谷道玄坂1丁目店\r\n","Address":"東京都渋谷区道玄坂1丁目10番5号"},"geometry":{"type":"Point","coordinates":[139.6991098,35.6570906]}},{"type":"Feature","properties":{"Name":"\r\nセブンイレブン 渋谷恵比寿3丁目店\r\n","Address":"東京都渋谷区恵比寿3丁目3-3"},"geometry":{"type":"Point","coordinates":[139.7182377,35.6452018]}},{"type":"Feature","properties":{"Name":"\r\nセブンイレブン 渋谷神宮前1丁目店\r\n","Address":"東京都渋谷区神宮前1-3-10"},"geometry":{"type":"Point","coordinates":[139.7075268,35.6730663]}},{"type":"Feature","properties":{"Name":"\r\nセブンイレブン 代々木千駄ヶ谷4丁目店\r\n","Address":"東京都渋谷区千駄ヶ谷4丁目30番3号"},"geometry":{"type":"Point","coordinates":[139.7033236,35.6815451]}},{"type":"Feature","properties":{"Name":"\r\nセブンイレブン 渋谷区役所店\r\n","Address":"東京都渋谷区宇田川町1-1"},"geometry":{"type":"Point","coordinates":[139.6982768,35.6643388]}},{"type":"Feature","properties":{"Name":"\r\nセブンイレブン 恵比寿駅前店\r\n","Address":"東京都渋谷区恵比寿1-10-5"},"geometry":{"type":"Point","coordinates":[139.7109574,35.6467637]}},{"type":"Feature","properties":{"Name":"\r\nセブンイレブン 渋谷代官山店\r\n","Address":"東京都渋谷区代官山町14-23"},"geometry":{"type":"Point","coordinates":[139.7032937,35.6505348]}},{"type":"Feature","properties":{"Name":"\r\nセブンイレブン 渋谷富ヶ谷2丁目店\r\n","Address":"東京都渋谷区富ヶ谷2-9-18"},"geometry":{"type":"Point","coordinates":[139.6869136,35.6650132]}},{"type":"Feature","properties":{"Name":"\r\nセブンイレブン 渋谷本町1丁目店\r\n","Address":"東京都渋谷区本町1-10-1"},"geometry":{"type":"Point","coordinates":[139.6838822,35.6801719]}},{"type":"Feature","properties":{"Name":"\r\nセブンイレブン 代官山駅東店\r\n","Address":"東京都渋谷区恵比寿西1-31-16"},"geometry":{"type":"Point","coordinates":[139.7049483,35.648045]}},{"type":"Feature","properties":{"Name":"\r\nデイリーヤマザキ 渋谷区神南店\r\n","Address":"東京都渋谷区神南1-6-12"},"geometry":{"type":"Point","coordinates":[139.699494,35.6645381]}},{"type":"Feature","properties":{"Name":"\r\nデイリーヤマザキ 渋谷宇田川町店\r\n","Address":"東京都渋谷区宇田川町13-16"},"geometry":{"type":"Point","coordinates":[139.6985329,35.66145849999999]}},{"type":"Feature","properties":{"Name":"\r\nデイリーヤマザキ 神泉店\r\n","Address":"東京都渋谷区神泉町4-6"},"geometry":{"type":"Point","coordinates":[139.6936103,35.6572573]}},{"type":"Feature","properties":{"Name":"\n生活彩家 目黒区役所店\n","Address":"東京都目黒区上目黒2-19-15 目黒区総合庁舎内"},"geometry":{"type":"Point","coordinates":[139.6981887,35.6413679]}},{"type":"Feature","properties":{"Name":"\nポプラ 池尻大橋店\n","Address":"東京都目黒区東山3-3-2 パラッツオ東山 1F"},"geometry":{"type":"Point","coordinates":[139.6854859,35.6503809]}},{"type":"Feature","properties":{"Name":"\nヤマザキショップ碑文谷1丁目店\n","Address":"東京都目黒区碑文谷1-17-4"},"geometry":{"type":"Point","coordinates":[139.6911296,35.620285]}},{"type":"Feature","properties":{"Name":"\nリーベンハウス青葉台タワー店\n","Address":"東京都目黒区青葉台3-6-28"},"geometry":{"type":"Point","coordinates":[139.6905743,35.6526429]}},{"type":"Feature","properties":{"Name":"\nローソン 目黒東山店\n","Address":"東京都目黒区東山1-8-6"},"geometry":{"type":"Point","coordinates":[139.6949021,35.6464829]}},{"type":"Feature","properties":{"Name":"\nローソン 柿の木坂店\n","Address":"東京都目黒区碑文谷4-24"},"geometry":{"type":"Point","coordinates":[139.6812471,35.6206605]}},{"type":"Feature","properties":{"Name":"\nローソン 自由ケ丘店\n","Address":"東京都目黒区自由が丘1-14-14"},"geometry":{"type":"Point","coordinates":[139.6701458,35.60860479999999]}},{"type":"Feature","properties":{"Name":"\nローソン 目黒中町一丁目店\n","Address":"東京都目黒区中町1-26-11"},"geometry":{"type":"Point","coordinates":[139.6968024,35.6292728]}},{"type":"Feature","properties":{"Name":"\nローソン 学芸大学店\n","Address":"東京都目黒区鷹番2-4-7"},"geometry":{"type":"Point","coordinates":[139.6893758,35.6288633]}},{"type":"Feature","properties":{"Name":"\nローソン 目黒中央町二丁目店\n","Address":"東京都目黒区中央町2-7-3"},"geometry":{"type":"Point","coordinates":[139.6934176,35.6308867]}},{"type":"Feature","properties":{"Name":"\nローソン 駒場一丁目店\n","Address":"東京都目黒区駒場1-40-16"},"geometry":{"type":"Point","coordinates":[139.6832522,35.6582896]}},{"type":"Feature","properties":{"Name":"\nローソン 下目黒一丁目店\n","Address":"東京都目黒区下目黒1-5-19"},"geometry":{"type":"Point","coordinates":[139.7120923,35.6341232]}},{"type":"Feature","properties":{"Name":"\nローソン 目黒洗足駅前店\n","Address":"東京都目黒区洗足2-24-15"},"geometry":{"type":"Point","coordinates":[139.694872,35.6104579]}},{"type":"Feature","properties":{"Name":"\nナチュラルローソン 目黒鷹番三丁目店\n","Address":"東京都目黒区鷹番3-20-13"},"geometry":{"type":"Point","coordinates":[139.6821159,35.629487]}},{"type":"Feature","properties":{"Name":"\nローソン 八雲二丁目店\n","Address":"東京都目黒区八雲2-24-12"},"geometry":{"type":"Point","coordinates":[139.6688772,35.6171146]}},{"type":"Feature","properties":{"Name":"\nナチュラルローソン 目黒祐天寺前店\n","Address":"東京都目黒区中目黒5-27-18"},"geometry":{"type":"Point","coordinates":[139.6946143,35.6360912]}},{"type":"Feature","properties":{"Name":"\nナチュラルローソン 祐天寺一丁目店\n","Address":"東京都目黒区祐天寺1-1-2"},"geometry":{"type":"Point","coordinates":[139.694376,35.6407163]}},{"type":"Feature","properties":{"Name":"\nナチュラルローソン NL八雲三丁目店\n","Address":"東京都目黒区八雲3-11-4"},"geometry":{"type":"Point","coordinates":[139.669391,35.6150763]}},{"type":"Feature","properties":{"Name":"\nローソン H目黒二丁目店\n","Address":"東京都目黒区目黒2-13-27"},"geometry":{"type":"Point","coordinates":[139.7064094,35.6360326]}},{"type":"Feature","properties":{"Name":"\nローソン 目黒一丁目店\n","Address":"東京都目黒区目黒1-5-19"},"geometry":{"type":"Point","coordinates":[139.7124064,35.6346868]}},{"type":"Feature","properties":{"Name":"\nローソン 自由が丘二丁目店\n","Address":"東京都目黒区自由が丘2-9-12"},"geometry":{"type":"Point","coordinates":[139.6675261,35.6089491]}},{"type":"Feature","properties":{"Name":"\nLAWSON+toks自由が丘上りホーム店\n","Address":"東京都目黒区自由が丘1-30-1"},"geometry":{"type":"Point","coordinates":[139.6688707,35.6074793]}},{"type":"Feature","properties":{"Name":"\nLAWSON+toks自由が丘下りホーム店\n","Address":"東京都目黒区自由が丘1-30-1"},"geometry":{"type":"Point","coordinates":[139.6688707,35.6074793]}},{"type":"Feature","properties":{"Name":"\nローソン 目黒大鳥神社前店\n","Address":"東京都目黒区目黒3-9-1"},"geometry":{"type":"Point","coordinates":[139.7077304,35.6330503]}},{"type":"Feature","properties":{"Name":"\nローソン H目黒大橋二丁目店\n","Address":"東京都目黒区大橋2-4-8"},"geometry":{"type":"Point","coordinates":[139.6892373,35.6533774]}},{"type":"Feature","properties":{"Name":"\nローソン 目黒緑が丘三丁目店\n","Address":"東京都目黒区緑が丘3-6-7"},"geometry":{"type":"Point","coordinates":[139.6799141,35.6045307]}},{"type":"Feature","properties":{"Name":"\nローソン 目黒本町店\n","Address":"東京都目黒区目黒本町2-6-16"},"geometry":{"type":"Point","coordinates":[139.6931219,35.6274439]}},{"type":"Feature","properties":{"Name":"\nローソン 上目黒山手通り店\n","Address":"東京都目黒区上目黒3-14-8"},"geometry":{"type":"Point","coordinates":[139.697106,35.6455478]}},{"type":"Feature","properties":{"Name":"\nローソンストア100 LS目黒本町店\n","Address":"東京都目黒区目黒本町4-3-9"},"geometry":{"type":"Point","coordinates":[139.6976534,35.62363029999999]}},{"type":"Feature","properties":{"Name":"\nローソンストア100 LS五本木店\n","Address":"東京都目黒区中央町2-36-14"},"geometry":{"type":"Point","coordinates":[139.6870756,35.6322436]}},{"type":"Feature","properties":{"Name":"\nローソン 目黒八雲一丁目店\n","Address":"東京都目黒区八雲1-3-6"},"geometry":{"type":"Point","coordinates":[139.6747015,35.6188029]}},{"type":"Feature","properties":{"Name":"\nローソン 柿の木坂二丁目店\n","Address":"東京都目黒区柿の木坂2-1-20"},"geometry":{"type":"Point","coordinates":[139.6764156,35.6272524]}},{"type":"Feature","properties":{"Name":"\nローソン 目黒平町二丁目店\n","Address":"東京都目黒区平町2-22-15"},"geometry":{"type":"Point","coordinates":[139.678301,35.614904]}},{"type":"Feature","properties":{"Name":"\nローソン 祐天寺駅前店\n","Address":"東京都目黒区五本木1-31-9"},"geometry":{"type":"Point","coordinates":[139.6906389,35.6374705]}},{"type":"Feature","properties":{"Name":"\nローソン 目黒碑文谷二丁目店\n","Address":"東京都目黒区碑文谷2-10-16"},"geometry":{"type":"Point","coordinates":[139.6869365,35.6239393]}},{"type":"Feature","properties":{"Name":"\nローソン・スリーエフ 碑文谷六丁目店\n","Address":"東京都目黒区碑文谷6-7-1"},"geometry":{"type":"Point","coordinates":[139.6841215,35.6271302]}},{"type":"Feature","properties":{"Name":"\nファミリーマート 佐野久下目黒店\n","Address":"東京都目黒区下目黒2-14-3"},"geometry":{"type":"Point","coordinates":[139.7124093,35.6291839]}},{"type":"Feature","properties":{"Name":"\nファミリーマート 東山三丁目店\n","Address":"東京都目黒区東山3-6-11"},"geometry":{"type":"Point","coordinates":[139.686757,35.6499089]}},{"type":"Feature","properties":{"Name":"\nファミリーマート 原町一丁目店\n","Address":"東京都目黒区原町1-6-5"},"geometry":{"type":"Point","coordinates":[139.6985599,35.6163136]}},{"type":"Feature","properties":{"Name":"\nファミリーマート 大鳥神社前店\n","Address":"東京都目黒区目黒3丁目10-13"},"geometry":{"type":"Point","coordinates":[139.7072376,35.6323489]}},{"type":"Feature","properties":{"Name":"\nファミリーマート 上目黒二丁目店\n","Address":"東京都目黒区上目黒2-18-2"},"geometry":{"type":"Point","coordinates":[139.6974032,35.64178709999999]}},{"type":"Feature","properties":{"Name":"\nファミリーマート 目黒三田通り店\n","Address":"東京都目黒区目黒1丁目1-5"},"geometry":{"type":"Point","coordinates":[139.7132091,35.63792919999999]}},{"type":"Feature","properties":{"Name":"\nファミリーマート 原町二丁目店\n","Address":"東京都目黒区原町2丁目22-11"},"geometry":{"type":"Point","coordinates":[139.6915803,35.6138235]}},{"type":"Feature","properties":{"Name":"\nファミリーマート 小浦中目黒店\n","Address":"東京都目黒区中目黒1丁目2番11"},"geometry":{"type":"Point","coordinates":[139.7017642,35.6450924]}},{"type":"Feature","properties":{"Name":"\nファミリーマート 目黒東山一丁目店\n","Address":"東京都目黒区東山1丁目2番7号第44興和ビル"},"geometry":{"type":"Point","coordinates":[139.6934906,35.6477786]}},{"type":"Feature","properties":{"Name":"\nファミリーマート 小浦目黒青葉台店\n","Address":"東京都目黒区青葉台1丁目22-10-101"},"geometry":{"type":"Point","coordinates":[139.6972451,35.6462084]}},{"type":"Feature","properties":{"Name":"\nファミリーマート 目黒中央町店\n","Address":"東京都目黒区中央町1丁目18-12"},"geometry":{"type":"Point","coordinates":[139.6897281,35.6286175]}},{"type":"Feature","properties":{"Name":"\nファミリーマート 学芸大学駅西店\n","Address":"東京都目黒区鷹番3丁目6-18カザーナ学芸大学"},"geometry":{"type":"Point","coordinates":[139.6844849,35.6292064]}},{"type":"Feature","properties":{"Name":"\nファミリーマート 学芸大学駅南店\n","Address":"東京都目黒区碑文谷6丁目1-26"},"geometry":{"type":"Point","coordinates":[139.6853589,35.6270649]}},{"type":"Feature","properties":{"Name":"\nファミリーマート 緑が丘駅前店\n","Address":"東京都目黒区緑が丘1丁目11-14"},"geometry":{"type":"Point","coordinates":[139.6788645,35.6067635]}},{"type":"Feature","properties":{"Name":"\nファミリーマート 目黒神泉町店\n","Address":"東京都目黒区青葉台4丁目4-5"},"geometry":{"type":"Point","coordinates":[139.6928365,35.65421389999999]}},{"type":"Feature","properties":{"Name":"\nファミリーマート 目黒青葉台三丁目店\n","Address":"東京都目黒区青葉台3丁目17-11 ティーケー青葉台"},"geometry":{"type":"Point","coordinates":[139.6905192,35.6505472]}},{"type":"Feature","properties":{"Name":"\nファミリーマート 目黒三丁目店\n","Address":"東京都目黒区目黒3丁目4-8ベル ドミール 目黒"},"geometry":{"type":"Point","coordinates":[139.7067939,35.6345255]}},{"type":"Feature","properties":{"Name":"\nファミリーマート 祐天寺駅東口店\n","Address":"東京都目黒区祐天寺2丁目12番21号"},"geometry":{"type":"Point","coordinates":[139.6916616,35.6374211]}},{"type":"Feature","properties":{"Name":"\nファミリーマート 目黒中町店\n","Address":"東京都目黒区中町2丁目32-5"},"geometry":{"type":"Point","coordinates":[139.6927708,35.6322153]}},{"type":"Feature","properties":{"Name":"\nファミリーマート 目黒本町三丁目店\n","Address":"東京都目黒区目黒本町3丁目20-12"},"geometry":{"type":"Point","coordinates":[139.6965818,35.6247252]}},{"type":"Feature","properties":{"Name":"\nファミリーマート 都立大学駅前店\n","Address":"東京都目黒区中根1丁目3-3"},"geometry":{"type":"Point","coordinates":[139.6756822,35.6177506]}},{"type":"Feature","properties":{"Name":"\nファミリーマート 下目黒六丁目店\n","Address":"東京都目黒区下目黒6-16-12津国屋ビル"},"geometry":{"type":"Point","coordinates":[139.6978782,35.6291701]}},{"type":"Feature","properties":{"Name":"\nファミリーマート 祐天寺駅前店\n","Address":"東京都目黒区五本木1-31-6"},"geometry":{"type":"Point","coordinates":[139.6908818,35.6377459]}},{"type":"Feature","properties":{"Name":"\nファミリーマート 緑が丘一丁目店\n","Address":"東京都目黒区緑が丘1-14-7"},"geometry":{"type":"Point","coordinates":[139.6769041,35.6097024]}},{"type":"Feature","properties":{"Name":"\nファミリーマート 目黒アルコタワー店\n","Address":"東京都目黒区下目黒1丁目8-1"},"geometry":{"type":"Point","coordinates":[139.7142745,35.6306231]}},{"type":"Feature","properties":{"Name":"\nファミリーマート 碑文谷一丁目店\n","Address":"東京都目黒区碑文谷1丁目25番21号"},"geometry":{"type":"Point","coordinates":[139.68929,35.62136460000001]}},{"type":"Feature","properties":{"Name":"\nファミリーマート 中目黒駅前店\n","Address":"東京都目黒区上目黒2-9-35"},"geometry":{"type":"Point","coordinates":[139.6995074,35.6430099]}},{"type":"Feature","properties":{"Name":"\nファミリーマート 伊豆屋下目黒三丁目店\n","Address":"東京都目黒区下目黒3ー7ー32ー103"},"geometry":{"type":"Point","coordinates":[139.7103446,35.6295455]}},{"type":"Feature","properties":{"Name":"\nファミリーマート 都立大学駅西店\n","Address":"東京都目黒区中根1-3-9 森戸ビル"},"geometry":{"type":"Point","coordinates":[139.6757842,35.6174254]}},{"type":"Feature","properties":{"Name":"\nファミリーマート 池尻大橋駅北店\n","Address":"東京都目黒区大橋2-24-1"},"geometry":{"type":"Point","coordinates":[139.6850912,35.6512563]}},{"type":"Feature","properties":{"Name":"\nファミリーマート 中目黒駅西口店\n","Address":"東京都目黒区上目黒3丁目6-3桧山ビル1F"},"geometry":{"type":"Point","coordinates":[139.6978981,35.6435782]}},{"type":"Feature","properties":{"Name":"\nファミリーマート 駒場四丁目店\n","Address":"東京都目黒区駒場4丁目6-10 コスモスビル1階"},"geometry":{"type":"Point","coordinates":[139.6787349,35.6639347]}},{"type":"Feature","properties":{"Name":"\nファミリーマート 学芸大学駅前店\n","Address":"東京都目黒区鷹番3-1-5"},"geometry":{"type":"Point","coordinates":[139.6859789,35.6292957]}},{"type":"Feature","properties":{"Name":"\nファミリーマート 自由が丘駅前店\n","Address":"東京都目黒区自由が丘2丁目13-1"},"geometry":{"type":"Point","coordinates":[139.6680167,35.6069312]}},{"type":"Feature","properties":{"Name":"\nファミリーマート 目黒柿の木坂店\n","Address":"東京都目黒区柿の木坂3-8-13"},"geometry":{"type":"Point","coordinates":[139.672303,35.626532]}},{"type":"Feature","properties":{"Name":"\nファミリーマート 中目黒1丁目店\n","Address":"東京都目黒区中目黒1丁目11-12"},"geometry":{"type":"Point","coordinates":[139.7023576,35.6411341]}},{"type":"Feature","properties":{"Name":"\nファミリーマート 東京医療センター店\n","Address":"東京都目黒区東が丘2丁目5-1"},"geometry":{"type":"Point","coordinates":[139.6664589,35.6264482]}},{"type":"Feature","properties":{"Name":"\nファミリーマート 目黒青葉台四丁目店\n","Address":"東京都目黒区青葉台4丁目7-1"},"geometry":{"type":"Point","coordinates":[139.6914502,35.6536965]}},{"type":"Feature","properties":{"Name":"\nファミリーマート 学芸大学駅西口店\n","Address":"東京都目黒区鷹番3丁目8-4"},"geometry":{"type":"Point","coordinates":[139.6853443,35.6297036]}},{"type":"Feature","properties":{"Name":"\nファミリーマート 目黒一丁目店\n","Address":"東京都目黒区目黒1丁目3-17"},"geometry":{"type":"Point","coordinates":[139.7133228,35.6348407]}},{"type":"Feature","properties":{"Name":"\nファミリーマート 西小山駅広場前店\n","Address":"東京都目黒区原町1丁目8-7"},"geometry":{"type":"Point","coordinates":[139.6984555,35.6155294]}},{"type":"Feature","properties":{"Name":"\nミニストップ 青葉台2丁目店\n","Address":"東京都目黒区青葉台2丁目21-6"},"geometry":{"type":"Point","coordinates":[139.6939349,35.6480807]}},{"type":"Feature","properties":{"Name":"\nミニストップ 東山2丁目店\n","Address":"東京都目黒区東山2丁目20-11"},"geometry":{"type":"Point","coordinates":[139.687338,35.64580309999999]}},{"type":"Feature","properties":{"Name":"\nセブンイレブン 都立大学駅南店\n","Address":"東京都目黒区中根2-11-1"},"geometry":{"type":"Point","coordinates":[139.6768534,35.6155631]}},{"type":"Feature","properties":{"Name":"\nセブンイレブン 油面店\n","Address":"東京都目黒区目黒4-23-19"},"geometry":{"type":"Point","coordinates":[139.6995307,35.632538]}},{"type":"Feature","properties":{"Name":"\nセブンイレブン 上目黒5丁目店\n","Address":"東京都目黒区上目黒5-3-8"},"geometry":{"type":"Point","coordinates":[139.6896166,35.644596]}},{"type":"Feature","properties":{"Name":"\nセブンイレブン 駒場大橋店\n","Address":"東京都目黒区大橋2-10-13"},"geometry":{"type":"Point","coordinates":[139.6870326,35.6551415]}},{"type":"Feature","properties":{"Name":"\nセブンイレブン 目黒中央1丁目店\n","Address":"東京都目黒区中央町1丁目11-1"},"geometry":{"type":"Point","coordinates":[139.6928388,35.6276833]}},{"type":"Feature","properties":{"Name":"\nセブンイレブン 目黒東山3丁目店\n","Address":"東京都目黒区東山3-7-11"},"geometry":{"type":"Point","coordinates":[139.6877273,35.649727]}},{"type":"Feature","properties":{"Name":"\nセブンイレブン 目黒青葉台3丁目店\n","Address":"東京都目黒区青葉台3-1-19"},"geometry":{"type":"Point","coordinates":[139.6927723,35.6533768]}},{"type":"Feature","properties":{"Name":"\nセブンイレブン 目黒柿の木坂1丁目店\n","Address":"東京都目黒区柿の木坂1-31-14"},"geometry":{"type":"Point","coordinates":[139.6749563,35.6192468]}},{"type":"Feature","properties":{"Name":"\nセブンイレブン 目黒環七柿の木坂店\n","Address":"東京都目黒区柿の木坂1-1-1"},"geometry":{"type":"Point","coordinates":[139.678964,35.6235777]}},{"type":"Feature","properties":{"Name":"\nセブンイレブン 目黒東が丘2丁目店\n","Address":"東京都目黒区東が丘2丁目12"},"geometry":{"type":"Point","coordinates":[139.6626673,35.6303346]}},{"type":"Feature","properties":{"Name":"\nセブンイレブン 目黒祐天寺店\n","Address":"東京都目黒区祐天寺2-14-3"},"geometry":{"type":"Point","coordinates":[139.6912867,35.6373278]}},{"type":"Feature","properties":{"Name":"\nセブンイレブン 五本木店\n","Address":"東京都目黒区五本木2-26-12"},"geometry":{"type":"Point","coordinates":[139.6868942,35.6344613]}},{"type":"Feature","properties":{"Name":"\nセブンイレブン 中目黒店\n","Address":"東京都目黒区中目黒2-7-14"},"geometry":{"type":"Point","coordinates":[139.7047595,35.6381687]}},{"type":"Feature","properties":{"Name":"\nセブンイレブン 目黒平和通り店\n","Address":"東京都目黒区目黒本町5ー32ー15"},"geometry":{"type":"Point","coordinates":[139.6990154,35.622072]}},{"type":"Feature","properties":{"Name":"\nセブンイレブン 目黒大橋2丁目店\n","Address":"東京都目黒区大橋2-22-6"},"geometry":{"type":"Point","coordinates":[139.68643,35.6519994]}},{"type":"Feature","properties":{"Name":"\nセブンイレブン 上目黒3丁目店\n","Address":"東京都目黒区上目黒3-10-3"},"geometry":{"type":"Point","coordinates":[139.6974188,35.6438301]}},{"type":"Feature","properties":{"Name":"\nセブンイレブン 目黒駒場1丁目店\n","Address":"東京都目黒区駒場1丁目31-6"},"geometry":{"type":"Point","coordinates":[139.6837542,35.6585873]}},{"type":"Feature","properties":{"Name":"\nセブンイレブン 目黒元競馬場店\n","Address":"東京都目黒区下目黒5-18-21"},"geometry":{"type":"Point","coordinates":[139.7021458,35.6306158]}},{"type":"Feature","properties":{"Name":"\nセブンイレブン 上目黒2丁目店\n","Address":"東京都目黒区上目黒2-1-3"},"geometry":{"type":"Point","coordinates":[139.6986759,35.643263]}},{"type":"Feature","properties":{"Name":"\nセブンイレブン 下目黒6丁目店\n","Address":"東京都目黒区下目黒6-8-25"},"geometry":{"type":"Point","coordinates":[139.7014889,35.6264616]}},{"type":"Feature","properties":{"Name":"\nセブンイレブン 目黒碑文谷3丁目店\n","Address":"東京都目黒区碑文谷3-10-18"},"geometry":{"type":"Point","coordinates":[139.6852839,35.6188935]}},{"type":"Feature","properties":{"Name":"\nセブンイレブン 朝日橋店\n","Address":"東京都目黒区青葉台1-29-6"},"geometry":{"type":"Point","coordinates":[139.6960693,35.6468329]}},{"type":"Feature","properties":{"Name":"\nセブンイレブン 中目黒アトラスタワー店\n","Address":"東京都目黒区上目黒1-26-1"},"geometry":{"type":"Point","coordinates":[139.7003935,35.6436661]}},{"type":"Feature","properties":{"Name":"\nセブンイレブン 自由が丘学園通り店\n","Address":"東京都目黒区自由が丘2-3-12"},"geometry":{"type":"Point","coordinates":[139.6667875,35.6125533]}},{"type":"Feature","properties":{"Name":"\nセブンイレブン 目黒南2丁目店\n","Address":"東京都目黒区南2-8-6"},"geometry":{"type":"Point","coordinates":[139.6867469,35.6136975]}},{"type":"Feature","properties":{"Name":"\nセブンイレブン 学芸大学駅東店\n","Address":"東京都目黒区鷹番2-8-19"},"geometry":{"type":"Point","coordinates":[139.687889,35.6288205]}},{"type":"Feature","properties":{"Name":"\nセブンイレブン 目黒本町2丁目店\n","Address":"東京都目黒区目黒本町2ー17ー19"},"geometry":{"type":"Point","coordinates":[139.6905205,35.6259942]}},{"type":"Feature","properties":{"Name":"\nセブンイレブン 清水池店\n","Address":"東京都目黒区目黒本町2ー11ー11"},"geometry":{"type":"Point","coordinates":[139.6930679,35.6241784]}},{"type":"Feature","properties":{"Name":"\nセブンイレブン 目黒柳通り店\n","Address":"東京都目黒区下目黒2丁目2-11"},"geometry":{"type":"Point","coordinates":[139.710963,35.6316974]}},{"type":"Feature","properties":{"Name":"\nセブンイレブン 武蔵小山西口店\n","Address":"東京都目黒区目黒本町3-5-7"},"geometry":{"type":"Point","coordinates":[139.7022582,35.6206416]}},{"type":"Feature","properties":{"Name":"\nセブンイレブン 目黒祐天寺駅前店\n","Address":"東京都目黒区祐天寺2-2-11"},"geometry":{"type":"Point","coordinates":[139.692017,35.63792189999999]}},{"type":"Feature","properties":{"Name":"\nセブンイレブン 目黒南3丁目店\n","Address":"東京都目黒区南3ー11ー18"},"geometry":{"type":"Point","coordinates":[139.685957,35.6118329]}},{"type":"Feature","properties":{"Name":"\nセブンイレブン 目黒洗足駅前店\n","Address":"東京都目黒区洗足2-19-5"},"geometry":{"type":"Point","coordinates":[139.6942441,35.6106283]}},{"type":"Feature","properties":{"Name":"\nセブンイレブン 上目黒1丁目店\n","Address":"東京都目黒区上目黒1-3-20"},"geometry":{"type":"Point","coordinates":[139.7008487,35.6452944]}},{"type":"Feature","properties":{"Name":"\nセブンイレブン 目黒自由が丘1丁目東店\n","Address":"東京都目黒区自由が丘1-4-6"},"geometry":{"type":"Point","coordinates":[139.6707953,35.6082329]}},{"type":"Feature","properties":{"Name":"\nセブンイレブン 自由が丘駅前店\n","Address":"東京都目黒区自由が丘2-10-4"},"geometry":{"type":"Point","coordinates":[139.6678271,35.6080933]}},{"type":"Feature","properties":{"Name":"\nセブンイレブン 目黒自由が丘1丁目北店\n","Address":"東京都目黒区自由が丘1丁目17-17"},"geometry":{"type":"Point","coordinates":[139.670099,35.6122134]}},{"type":"Feature","properties":{"Name":"\nセブンイレブン 目黒中町1丁目店\n","Address":"東京都目黒区中町1-7-6"},"geometry":{"type":"Point","coordinates":[139.7003314,35.6303356]}},{"type":"Feature","properties":{"Name":"\nセブンイレブン 都立大学駅前店\n","Address":"東京都目黒区平町1-25-18"},"geometry":{"type":"Point","coordinates":[139.6766813,35.6171582]}},{"type":"Feature","properties":{"Name":"\nセブンイレブン 下目黒1丁目店\n","Address":"東京都目黒区下目黒1-3-1"},"geometry":{"type":"Point","coordinates":[139.7131981,35.6342096]}},{"type":"Feature","properties":{"Name":"\nセブンイレブン 学芸大学駅西口店\n","Address":"東京都目黒区鷹番3丁目8番1号"},"geometry":{"type":"Point","coordinates":[139.6856988,35.6298667]}},{"type":"Feature","properties":{"Name":"\nセブンイレブン 目黒原町1丁目店\n","Address":"東京都目黒区原町1-15"},"geometry":{"type":"Point","coordinates":[139.6969607,35.6164261]}},{"type":"Feature","properties":{"Name":"\nセブンイレブン 目黒鷹番1丁目店\n","Address":"東京都目黒区鷹番1-11-8"},"geometry":{"type":"Point","coordinates":[139.6867072,35.624458]}},{"type":"Feature","properties":{"Name":"\nセブンイレブン 目黒行人坂店\n","Address":"東京都目黒区下目黒1ー7ー8"},"geometry":{"type":"Point","coordinates":[139.7125883,35.6325222]}},{"type":"Feature","properties":{"Name":"\nセブンイレブン 目黒八雲5丁目店\n","Address":"東京都目黒区八雲5丁目14-15"},"geometry":{"type":"Point","coordinates":[139.6672367,35.6206595]}},{"type":"Feature","properties":{"Name":"\nデイリーヤマザキ 目黒本町6丁目店\n","Address":"東京都目黒区目黒本町6-6-5"},"geometry":{"type":"Point","coordinates":[139.6972402,35.6182803]}},{"type":"Feature","properties":{"Name":"\nYSPS玉川病院店\n","Address":"東京都世田谷区瀬田4丁目8-1"},"geometry":{"type":"Point","coordinates":[139.6243409,35.6204416]}},{"type":"Feature","properties":{"Name":"\n生活彩家昭和大学付属烏山病院店\n","Address":"東京都世田谷区北烏山6-11-11"},"geometry":{"type":"Point","coordinates":[139.5962975,35.6722445]}},{"type":"Feature","properties":{"Name":"\nファミマ!! 二子玉川ライズ・ショッピングセンター店\n","Address":"東京都世田谷区玉川2-21-1 二子玉川ライズ テラスマーケット1F"},"geometry":{"type":"Point","coordinates":[139.6295659,35.611309]}},{"type":"Feature","properties":{"Name":"\nOdakyu MART 喜多見店\n","Address":"東京都世田谷区喜多見9-2-26"},"geometry":{"type":"Point","coordinates":[139.587616,35.6368177]}},{"type":"Feature","properties":{"Name":"\nローソン LTF大蔵六丁目店\n","Address":"東京都世田谷区大蔵6-19"},"geometry":{"type":"Point","coordinates":[139.6077595,35.6242248]}},{"type":"Feature","properties":{"Name":"\nローソン LTF梅丘二丁目\n","Address":"東京都世田谷区梅丘2-11-3"},"geometry":{"type":"Point","coordinates":[139.654013,35.6493582]}},{"type":"Feature","properties":{"Name":"\nローソン+(プラス)トークス 二子玉川ライズ・ショッピングセンターテラスマーケット2F店\n","Address":"東京都世田谷区玉川2-21-1 二子玉川ライズ テラスマーケット2F"},"geometry":{"type":"Point","coordinates":[139.6309437,35.610976]}},{"type":"Feature","properties":{"Name":"\nCOMMUNITY STORE(コミュニティ・ストア) 三省堂書店SEIJO×10店\n","Address":"東京都世田谷区成城6-1-20"},"geometry":{"type":"Point","coordinates":[139.6005337,35.6453246]}},{"type":"Feature","properties":{"Name":"\nローソン LTF 等々力二丁目店\n","Address":"東京都世田谷区等々力2-32-9"},"geometry":{"type":"Point","coordinates":[139.6472104,35.6080013]}},{"type":"Feature","properties":{"Name":"\nポプラ 代田店\n","Address":"東京都世田谷区代田4-5-11"},"geometry":{"type":"Point","coordinates":[139.6598205,35.659679]}},{"type":"Feature","properties":{"Name":"\nOXショップ千歳船橋店\n","Address":"東京都世田谷区船橋1-1-5"},"geometry":{"type":"Point","coordinates":[139.6242902,35.64761960000001]}},{"type":"Feature","properties":{"Name":"\nヤマザキショップ北烏山店\n","Address":"東京都世田谷区北烏山4-8-18"},"geometry":{"type":"Point","coordinates":[139.5987094,35.6786096]}},{"type":"Feature","properties":{"Name":"\nヤマザキショップ代田サンカツ店\n","Address":"東京都世田谷区代田2-31-1"},"geometry":{"type":"Point","coordinates":[139.6625176,35.6582912]}},{"type":"Feature","properties":{"Name":"\nモンマートおだ\n","Address":"東京都世田谷区松原5-3-21"},"geometry":{"type":"Point","coordinates":[139.6555473,35.6623317]}},{"type":"Feature","properties":{"Name":"\nローソン 世田谷三丁目店\n","Address":"東京都世田谷区世田谷3-12-12"},"geometry":{"type":"Point","coordinates":[139.6472194,35.64390059999999]}},{"type":"Feature","properties":{"Name":"\nローソン 駒沢一丁目店\n","Address":"東京都世田谷区駒沢1-17-17"},"geometry":{"type":"Point","coordinates":[139.6583654,35.6313493]}},{"type":"Feature","properties":{"Name":"\nローソン 三軒茶屋店\n","Address":"東京都世田谷区三軒茶屋2-19-18"},"geometry":{"type":"Point","coordinates":[139.6660613,35.6428773]}},{"type":"Feature","properties":{"Name":"\nローソン 日体大前店\n","Address":"東京都世田谷区深沢5-17-6"},"geometry":{"type":"Point","coordinates":[139.6496623,35.6206805]}},{"type":"Feature","properties":{"Name":"\nローソン 祖師谷店\n","Address":"東京都世田谷区祖師谷3-6-14"},"geometry":{"type":"Point","coordinates":[139.6059881,35.642786]}},{"type":"Feature","properties":{"Name":"\nローソン 太子堂二丁目店\n","Address":"東京都世田谷区太子堂2-17-9"},"geometry":{"type":"Point","coordinates":[139.6707145,35.6451468]}},{"type":"Feature","properties":{"Name":"\nローソン 尾山台店\n","Address":"東京都世田谷区等々力2-17-16"},"geometry":{"type":"Point","coordinates":[139.652521,35.6056087]}},{"type":"Feature","properties":{"Name":"\nローソン 下北沢駅西口店\n","Address":"東京都世田谷区北沢2-23-7"},"geometry":{"type":"Point","coordinates":[139.6659731,35.66153389999999]}},{"type":"Feature","properties":{"Name":"\nナチュラルローソン 成城六丁目店\n","Address":"東京都世田谷区成城6-16-3"},"geometry":{"type":"Point","coordinates":[139.5977097,35.6408273]}},{"type":"Feature","properties":{"Name":"\nローソン 瀬田店\n","Address":"東京都世田谷区瀬田3-1-8"},"geometry":{"type":"Point","coordinates":[139.6346658,35.61935070000001]}},{"type":"Feature","properties":{"Name":"\nローソン 代沢五丁目店\n","Address":"東京都世田谷区代沢5-8-5"},"geometry":{"type":"Point","coordinates":[139.6675779,35.6560847]}},{"type":"Feature","properties":{"Name":"\nローソン 下北沢店\n","Address":"東京都世田谷区北沢2-7-14"},"geometry":{"type":"Point","coordinates":[139.6695845,35.6616679]}},{"type":"Feature","properties":{"Name":"\nローソン 上馬二丁目店\n","Address":"東京都世田谷区上馬2-38-7"},"geometry":{"type":"Point","coordinates":[139.6618197,35.6396001]}},{"type":"Feature","properties":{"Name":"\nローソン 経堂一丁目店\n","Address":"東京都世田谷区経堂1-11-10"},"geometry":{"type":"Point","coordinates":[139.6367535,35.64944759999999]}},{"type":"Feature","properties":{"Name":"\nローソン 八幡山三丁目店\n","Address":"東京都世田谷区八幡山3-33-14"},"geometry":{"type":"Point","coordinates":[139.616323,35.6689185]}},{"type":"Feature","properties":{"Name":"\nローソン 北沢店\n","Address":"東京都世田谷区北沢3-27-4"},"geometry":{"type":"Point","coordinates":[139.6677986,35.6642318]}},{"type":"Feature","properties":{"Name":"\nローソン 給田四丁目店\n","Address":"東京都世田谷区給田4-30-1"},"geometry":{"type":"Point","coordinates":[139.5887758,35.6707258]}},{"type":"Feature","properties":{"Name":"\nローソン 南烏山六丁目店\n","Address":"東京都世田谷区南烏山6-26-5"},"geometry":{"type":"Point","coordinates":[139.5976577,35.6709793]}},{"type":"Feature","properties":{"Name":"\nローソン 成城二丁目店\n","Address":"東京都世田谷区成城2-34-1"},"geometry":{"type":"Point","coordinates":[139.5995609,35.6392789]}},{"type":"Feature","properties":{"Name":"\nローソン 大原一丁目店\n","Address":"東京都世田谷区大原1-51-1"},"geometry":{"type":"Point","coordinates":[139.6636678,35.6691834]}},{"type":"Feature","properties":{"Name":"\nローソン 東北沢駅前店\n","Address":"東京都世田谷区北沢3-1-3"},"geometry":{"type":"Point","coordinates":[139.6732487,35.6659387]}},{"type":"Feature","properties":{"Name":"\nローソン 祖師ヶ谷大蔵駅南口店\n","Address":"東京都世田谷区砧8-8-21"},"geometry":{"type":"Point","coordinates":[139.608492,35.6421188]}},{"type":"Feature","properties":{"Name":"\nローソン 下高井戸駅前店\n","Address":"東京都世田谷区松原3-29-17"},"geometry":{"type":"Point","coordinates":[139.6411156,35.6661333]}},{"type":"Feature","properties":{"Name":"\nナチュラルローソン 上野毛一丁目店\n","Address":"東京都世田谷区上野毛1-13-7"},"geometry":{"type":"Point","coordinates":[139.6385618,35.611775]}},{"type":"Feature","properties":{"Name":"\nローソン 北沢五丁目店\n","Address":"東京都世田谷区北沢5-24-27"},"geometry":{"type":"Point","coordinates":[139.6721952,35.6700304]}},{"type":"Feature","properties":{"Name":"\nローソン 世田谷代田駅前店\n","Address":"東京都世田谷区代田5-7-5"},"geometry":{"type":"Point","coordinates":[139.6605204,35.6582432]}},{"type":"Feature","properties":{"Name":"\nローソン 代田橋駅北口店\n","Address":"東京都世田谷区大原2-26-10"},"geometry":{"type":"Point","coordinates":[139.6586733,35.671556]}},{"type":"Feature","properties":{"Name":"\nローソン 世田谷駅北店\n","Address":"東京都世田谷区世田谷3-19-14"},"geometry":{"type":"Point","coordinates":[139.650394,35.645073]}},{"type":"Feature","properties":{"Name":"\nローソン 野沢一丁目店\n","Address":"東京都世田谷区野沢1-35-9"},"geometry":{"type":"Point","coordinates":[139.6733439,35.6385321]}},{"type":"Feature","properties":{"Name":"\nローソン 奥沢七丁目店\n","Address":"東京都世田谷区奥沢7-20-19"},"geometry":{"type":"Point","coordinates":[139.6615032,35.6055117]}},{"type":"Feature","properties":{"Name":"\nローソン 弦巻二丁目店\n","Address":"東京都世田谷区弦巻2-9-5"},"geometry":{"type":"Point","coordinates":[139.6538492,35.6361113]}},{"type":"Feature","properties":{"Name":"\nローソン 下馬四丁目店\n","Address":"東京都世田谷区下馬4-24-11"},"geometry":{"type":"Point","coordinates":[139.6816483,35.637062]}},{"type":"Feature","properties":{"Name":"\nローソン 奥沢駅前店\n","Address":"東京都世田谷区奥沢4-28-11"},"geometry":{"type":"Point","coordinates":[139.6717582,35.6036047]}},{"type":"Feature","properties":{"Name":"\nローソン 北烏山八丁目店\n","Address":"東京都世田谷区北烏山8-31-22"},"geometry":{"type":"Point","coordinates":[139.5890842,35.6793178]}},{"type":"Feature","properties":{"Name":"\nローソン 用賀二丁目店\n","Address":"東京都世田谷区用賀2-35-6"},"geometry":{"type":"Point","coordinates":[139.6358983,35.6262155]}},{"type":"Feature","properties":{"Name":"\nローソン 下北沢成徳前店\n","Address":"東京都世田谷区北沢2-40-9"},"geometry":{"type":"Point","coordinates":[139.6656136,35.664401]}},{"type":"Feature","properties":{"Name":"\nローソン 池尻三宿通店\n","Address":"東京都世田谷区池尻3-29-5"},"geometry":{"type":"Point","coordinates":[139.6779034,35.6483297]}},{"type":"Feature","properties":{"Name":"\nナチュラルローソン 九品仏小前店\n","Address":"東京都世田谷区奥沢6-11-7"},"geometry":{"type":"Point","coordinates":[139.6609791,35.6034104]}},{"type":"Feature","properties":{"Name":"\nナチュラルローソン 上馬三丁目店\n","Address":"東京都世田谷区上馬3-6-9"},"geometry":{"type":"Point","coordinates":[139.6643241,35.63504959999999]}},{"type":"Feature","properties":{"Name":"\nナチュラルローソン 駒沢五丁目店\n","Address":"東京都世田谷区駒沢5-21-6"},"geometry":{"type":"Point","coordinates":[139.6557174,35.6251886]}},{"type":"Feature","properties":{"Name":"\nナチュラルローソン 若林一丁目店\n","Address":"東京都世田谷区若林1-7-3"},"geometry":{"type":"Point","coordinates":[139.6639076,35.6434548]}},{"type":"Feature","properties":{"Name":"\nローソン 世田谷三宿一丁目店\n","Address":"東京都世田谷区三宿1-14-1"},"geometry":{"type":"Point","coordinates":[139.6762494,35.6466558]}},{"type":"Feature","properties":{"Name":"\nローソン 世田谷山下駅前店\n","Address":"東京都世田谷区宮坂2-26-31"},"geometry":{"type":"Point","coordinates":[139.6461825,35.6537947]}},{"type":"Feature","properties":{"Name":"\nローソン 成城学園前駅西口店\n","Address":"東京都世田谷区成城2-33-12"},"geometry":{"type":"Point","coordinates":[139.5978351,35.6391295]}},{"type":"Feature","properties":{"Name":"\nローソン 下馬三丁目店\n","Address":"東京都世田谷区下馬3-11-6"},"geometry":{"type":"Point","coordinates":[139.6744098,35.635057]}},{"type":"Feature","properties":{"Name":"\nローソン 池尻一丁目店\n","Address":"東京都世田谷区池尻1-9-10"},"geometry":{"type":"Point","coordinates":[139.6798646,35.6441355]}},{"type":"Feature","properties":{"Name":"\nローソン L H鎌田三丁目店\n","Address":"東京都世田谷区鎌田3-12-16"},"geometry":{"type":"Point","coordinates":[139.6139187,35.6199502]}},{"type":"Feature","properties":{"Name":"\nナチュラルローソン 経堂テラスガーデン店\n","Address":"東京都世田谷区宮坂3-1-32"},"geometry":{"type":"Point","coordinates":[139.6381042,35.6517351]}},{"type":"Feature","properties":{"Name":"\nLAWSON+toks二子玉川店\n","Address":"東京都世田谷区玉川2-21-1二子玉川ライズS.C"},"geometry":{"type":"Point","coordinates":[139.6295659,35.611309]}},{"type":"Feature","properties":{"Name":"\nローソン 明大前駅南店\n","Address":"東京都世田谷区松原2-22-13"},"geometry":{"type":"Point","coordinates":[139.6505526,35.6676076]}},{"type":"Feature","properties":{"Name":"\nローソン 世田谷奥沢五丁目店\n","Address":"東京都世田谷区奥沢5-41-11"},"geometry":{"type":"Point","coordinates":[139.6665526,35.6062483]}},{"type":"Feature","properties":{"Name":"\nナチュラルローソン 世田谷弦巻三丁目店\n","Address":"東京都世田谷区弦巻3-4-11"},"geometry":{"type":"Point","coordinates":[139.6481662,35.6360169]}},{"type":"Feature","properties":{"Name":"\nローソン 南烏山五丁目店\n","Address":"東京都世田谷区南烏山5-16-2"},"geometry":{"type":"Point","coordinates":[139.6019007,35.6671209]}},{"type":"Feature","properties":{"Name":"\nローソン 駒沢オリンピック公園前店\n","Address":"東京都世田谷区深沢2-19-14"},"geometry":{"type":"Point","coordinates":[139.6601199,35.6230481]}},{"type":"Feature","properties":{"Name":"\nローソン 芦花公園店\n","Address":"東京都世田谷区南烏山1-2-18"},"geometry":{"type":"Point","coordinates":[139.6130408,35.66785309999999]}},{"type":"Feature","properties":{"Name":"\nローソン 祖師谷二丁目店\n","Address":"東京都世田谷区祖師谷2-3-7"},"geometry":{"type":"Point","coordinates":[139.6087012,35.6472313]}},{"type":"Feature","properties":{"Name":"\nローソン 世田谷一丁目店\n","Address":"東京都世田谷区世田谷1-30-11"},"geometry":{"type":"Point","coordinates":[139.6484527,35.6414402]}},{"type":"Feature","properties":{"Name":"\nローソン 世田谷砧五丁目店\n","Address":"東京都世田谷区砧5-12-4"},"geometry":{"type":"Point","coordinates":[139.609923,35.638349]}},{"type":"Feature","properties":{"Name":"\nローソン 世田谷三軒茶屋二丁目店\n","Address":"東京都世田谷区三軒茶屋2-2-13"},"geometry":{"type":"Point","coordinates":[139.668641,35.640842]}},{"type":"Feature","properties":{"Name":"\nローソン 世田谷赤堤三丁目店\n","Address":"東京都世田谷区赤堤3-23-2"},"geometry":{"type":"Point","coordinates":[139.638863,35.6570752]}},{"type":"Feature","properties":{"Name":"\nローソン 世田谷玉堤一丁目店\n","Address":"東京都世田谷区玉堤1-16-30"},"geometry":{"type":"Point","coordinates":[139.6534583,35.5974335]}},{"type":"Feature","properties":{"Name":"\nローソン 世田谷玉川三丁目店\n","Address":"東京都世田谷区玉川3-23-22"},"geometry":{"type":"Point","coordinates":[139.6251483,35.615272]}},{"type":"Feature","properties":{"Name":"\nローソン 世田谷瀬田五丁目店\n","Address":"東京都世田谷区瀬田5-20-30"},"geometry":{"type":"Point","coordinates":[139.6272018,35.6240671]}},{"type":"Feature","properties":{"Name":"\nローソン 世田谷用賀三丁目店\n","Address":"東京都世田谷区用賀3-4-6"},"geometry":{"type":"Point","coordinates":[139.6377168,35.6317195]}},{"type":"Feature","properties":{"Name":"\nローソン 世田谷上野毛通り店\n","Address":"東京都世田谷区中町2-41-7"},"geometry":{"type":"Point","coordinates":[139.6413938,35.6136961]}},{"type":"Feature","properties":{"Name":"\nローソン 世田谷三軒茶屋一丁目店\n","Address":"東京都世田谷区三軒茶屋1-19-1"},"geometry":{"type":"Point","coordinates":[139.6703004,35.6394128]}},{"type":"Feature","properties":{"Name":"\nローソン 世田谷給田三丁目店\n","Address":"東京都世田谷区給田3-17-13"},"geometry":{"type":"Point","coordinates":[139.5898473,35.6643309]}},{"type":"Feature","properties":{"Name":"\nローソン 世田谷上野毛四丁目店\n","Address":"東京都世田谷区上野毛4-1-2"},"geometry":{"type":"Point","coordinates":[139.6410102,35.6182771]}},{"type":"Feature","properties":{"Name":"\nローソンストア100 LS世田谷船橋一丁目店\n","Address":"東京都世田谷区船橋1-11-2"},"geometry":{"type":"Point","coordinates":[139.6221875,35.6472411]}},{"type":"Feature","properties":{"Name":"\nローソンストア100 LS世田谷代田四丁目店\n","Address":"東京都世田谷区代田4-10-24"},"geometry":{"type":"Point","coordinates":[139.6600004,35.662031]}},{"type":"Feature","properties":{"Name":"\nローソンストア100 LS下馬二丁目店\n","Address":"東京都世田谷区下馬2-44-12三宿フォーラム"},"geometry":{"type":"Point","coordinates":[139.6793744,35.6441115]}},{"type":"Feature","properties":{"Name":"\nローソンストア100 LS上野毛店\n","Address":"東京都世田谷区上野毛1-18-14"},"geometry":{"type":"Point","coordinates":[139.6406291,35.6132777]}},{"type":"Feature","properties":{"Name":"\nローソンストア100 LS世田谷豪徳寺店\n","Address":"東京都世田谷区豪徳寺2-31-10アネックス和泉"},"geometry":{"type":"Point","coordinates":[139.6458867,35.6504359]}},{"type":"Feature","properties":{"Name":"\nローソンストア100 LS用賀店\n","Address":"東京都世田谷区用賀4-14-1榮喜堂ビル"},"geometry":{"type":"Point","coordinates":[139.6351356,35.6283134]}},{"type":"Feature","properties":{"Name":"\nローソンストア100 LS南烏山五丁目店\n","Address":"東京都世田谷区南烏山5-3-3ジェイスクエア世田谷"},"geometry":{"type":"Point","coordinates":[139.6038168,35.6666009]}},{"type":"Feature","properties":{"Name":"\nローソンストア100 LS世田谷奥沢店\n","Address":"東京都世田谷区奥沢2-36-6"},"geometry":{"type":"Point","coordinates":[139.671527,35.6060317]}},{"type":"Feature","properties":{"Name":"\nローソンストア100 LS梅丘一丁目店\n","Address":"東京都世田谷区梅丘1-21-9ルミエール梅ヶ丘"},"geometry":{"type":"Point","coordinates":[139.6539974,35.6555811]}},{"type":"Feature","properties":{"Name":"\nローソンストア100 LS世田谷下馬店\n","Address":"東京都世田谷区下馬1-56-11"},"geometry":{"type":"Point","coordinates":[139.6853701,35.6410728]}},{"type":"Feature","properties":{"Name":"\nローソンストア100 LS池尻店\n","Address":"東京都世田谷区池尻4-29-16"},"geometry":{"type":"Point","coordinates":[139.6767611,35.65530810000001]}},{"type":"Feature","properties":{"Name":"\nローソン 世田谷鎌田四丁目店\n","Address":"東京都世田谷区鎌田4-14-8"},"geometry":{"type":"Point","coordinates":[139.609178,35.6236778]}},{"type":"Feature","properties":{"Name":"\nローソン 世田谷北烏山三丁目店\n","Address":"東京都世田谷区北烏山3-20-7"},"geometry":{"type":"Point","coordinates":[139.6005232,35.6769389]}},{"type":"Feature","properties":{"Name":"\nローソン 世田谷桜新町二丁目店\n","Address":"東京都世田谷区桜新町2-13-20"},"geometry":{"type":"Point","coordinates":[139.6433371,35.6338376]}},{"type":"Feature","properties":{"Name":"\nローソン 世田谷野沢二丁目店\n","Address":"東京都世田谷区野沢2-25-10"},"geometry":{"type":"Point","coordinates":[139.6677968,35.6334202]}},{"type":"Feature","properties":{"Name":"\nローソン 大蔵運動公園前店\n","Address":"東京都世田谷区大蔵2-12-3"},"geometry":{"type":"Point","coordinates":[139.6119411,35.6320167]}},{"type":"Feature","properties":{"Name":"\nローソン 世田谷赤堤四丁目店\n","Address":"東京都世田谷区赤堤4-43-10"},"geometry":{"type":"Point","coordinates":[139.6388929,35.6644829]}},{"type":"Feature","properties":{"Name":"\nローソン・スリーエフ 自由が丘店\n","Address":"東京都世田谷区奥沢6-20-20"},"geometry":{"type":"Point","coordinates":[139.665135,35.6042843]}},{"type":"Feature","properties":{"Name":"\nローソン・スリーエフ 東松原駅前店\n","Address":"東京都世田谷区松原5-3-21"},"geometry":{"type":"Point","coordinates":[139.6555473,35.6623317]}},{"type":"Feature","properties":{"Name":"\nローソン・スリーエフ 世田谷船橋店\n","Address":"東京都世田谷区船橋1-15-16"},"geometry":{"type":"Point","coordinates":[139.6237202,35.6497875]}},{"type":"Feature","properties":{"Name":"\nローソン・スリーエフ 松陰神社駅前店\n","Address":"東京都世田谷区若林4-19-4"},"geometry":{"type":"Point","coordinates":[139.655942,35.6448781]}},{"type":"Feature","properties":{"Name":"\nローソン・スリーエフ 等々力七丁目店\n","Address":"東京都世田谷区等々力7-10-14"},"geometry":{"type":"Point","coordinates":[139.6529135,35.6139531]}},{"type":"Feature","properties":{"Name":"\nローソン・スリーエフ 世田谷三軒茶屋一丁目店\n","Address":"東京都世田谷区三軒茶屋1-6-10"},"geometry":{"type":"Point","coordinates":[139.6743299,35.640686]}},{"type":"Feature","properties":{"Name":"\nローソン・スリーエフ 世田谷産能大学前店\n","Address":"東京都世田谷区等々力6-37-12"},"geometry":{"type":"Point","coordinates":[139.6593938,35.6135123]}},{"type":"Feature","properties":{"Name":"\nローソン・スリーエフ 池ノ上店\n","Address":"東京都世田谷区代沢2-43-8"},"geometry":{"type":"Point","coordinates":[139.6731251,35.6604706]}},{"type":"Feature","properties":{"Name":"\nローソン・スリーエフ 奥沢八丁目店\n","Address":"東京都世田谷区奥沢8-37-11"},"geometry":{"type":"Point","coordinates":[139.6579037,35.6059168]}},{"type":"Feature","properties":{"Name":"\nローソン 世田谷上用賀六丁目店\n","Address":"東京都世田谷区上用賀6-31-12"},"geometry":{"type":"Point","coordinates":[139.623354,35.6375483]}},{"type":"Feature","properties":{"Name":"\nローソン toks三軒茶屋駅店\n","Address":"東京都世田谷区太子堂2-15"},"geometry":{"type":"Point","coordinates":[139.6712787,35.6438363]}},{"type":"Feature","properties":{"Name":"\nファミリーマート 新代田駅前店\n","Address":"東京都世田谷区代田4-10"},"geometry":{"type":"Point","coordinates":[139.6597174,35.6617712]}},{"type":"Feature","properties":{"Name":"\nファミリーマート 梅ケ丘店\n","Address":"東京都世田谷区梅丘1-33-11"},"geometry":{"type":"Point","coordinates":[139.6528244,35.6561526]}},{"type":"Feature","properties":{"Name":"\nファミリーマート まるいし八幡山店\n","Address":"東京都世田谷区八幡山1-2-6"},"geometry":{"type":"Point","coordinates":[139.6233049,35.659752]}},{"type":"Feature","properties":{"Name":"\nファミリーマート 池ノ上駅北口店\n","Address":"東京都世田谷区北沢1-33-16"},"geometry":{"type":"Point","coordinates":[139.6725045,35.66115]}},{"type":"Feature","properties":{"Name":"\nファミリーマート 上北沢四丁目店\n","Address":"東京都世田谷区上北沢4-14-9"},"geometry":{"type":"Point","coordinates":[139.6237103,35.6692319]}},{"type":"Feature","properties":{"Name":"\nファミリーマート 世田谷鎌田三丁目店\n","Address":"東京都世田谷区鎌田3-12-16"},"geometry":{"type":"Point","coordinates":[139.6139187,35.6199502]}},{"type":"Feature","properties":{"Name":"\nファミリーマート 成城六丁目店\n","Address":"東京都世田谷区成城6丁目13-22 成城第一生命ビル"},"geometry":{"type":"Point","coordinates":[139.6001331,35.641202]}},{"type":"Feature","properties":{"Name":"\nファミリーマート 代沢五丁目店\n","Address":"東京都世田谷区代沢5-29-14"},"geometry":{"type":"Point","coordinates":[139.6673194,35.6584109]}},{"type":"Feature","properties":{"Name":"\nファミリーマート 太子堂三丁目店\n","Address":"東京都世田谷区太子堂3-15-2ゴリラビル"},"geometry":{"type":"Point","coordinates":[139.6691656,35.6476117]}},{"type":"Feature","properties":{"Name":"\nファミリーマート 芦花公園駅北店\n","Address":"東京都世田谷区南烏山3-25-15"},"geometry":{"type":"Point","coordinates":[139.6085286,35.6727593]}},{"type":"Feature","properties":{"Name":"\nファミリーマート 用賀四丁目店\n","Address":"東京都世田谷区用賀4丁目20-11スズキビル"},"geometry":{"type":"Point","coordinates":[139.6311229,35.6282025]}},{"type":"Feature","properties":{"Name":"\nファミリーマート サンズ経堂駅北店\n","Address":"東京都世田谷区宮坂3-10-7"},"geometry":{"type":"Point","coordinates":[139.6376967,35.6525592]}},{"type":"Feature","properties":{"Name":"\nファミリーマート 千歳烏山駅東口店\n","Address":"東京都世田谷区南烏山4-12-4スギウラビル"},"geometry":{"type":"Point","coordinates":[139.6011685,35.6687035]}},{"type":"Feature","properties":{"Name":"\nファミリーマート 桜丘三丁目店\n","Address":"東京都世田谷区桜丘3-10-16"},"geometry":{"type":"Point","coordinates":[139.627965,35.6431729]}},{"type":"Feature","properties":{"Name":"\nファミリーマート 世田谷喜多見店\n","Address":"東京都世田谷区喜多見7丁目36-27"},"geometry":{"type":"Point","coordinates":[139.5952943,35.6347054]}},{"type":"Feature","properties":{"Name":"\nファミリーマート 松原六丁目店\n","Address":"東京都世田谷区松原6丁目25-4"},"geometry":{"type":"Point","coordinates":[139.6517853,35.66038959999999]}},{"type":"Feature","properties":{"Name":"\nファミリーマート 246三軒茶屋店\n","Address":"東京都世田谷区三軒茶屋1-37-8"},"geometry":{"type":"Point","coordinates":[139.6708635,35.6429471]}},{"type":"Feature","properties":{"Name":"\nファミリーマート まるいし希望丘店\n","Address":"東京都世田谷区船橋6-1-6"},"geometry":{"type":"Point","coordinates":[139.6233938,35.6565877]}},{"type":"Feature","properties":{"Name":"\nファミリーマート 成城学園前店\n","Address":"東京都世田谷区成城6丁目12-5"},"geometry":{"type":"Point","coordinates":[139.5996958,35.6407756]}},{"type":"Feature","properties":{"Name":"\nファミリーマート 天神森橋店\n","Address":"東京都世田谷区宇奈根1丁目22-17"},"geometry":{"type":"Point","coordinates":[139.6091469,35.621626]}},{"type":"Feature","properties":{"Name":"\nファミリーマート 世田谷廻沢店\n","Address":"東京都世田谷区千歳台3丁目29-1"},"geometry":{"type":"Point","coordinates":[139.6127432,35.6527739]}},{"type":"Feature","properties":{"Name":"\nファミリーマート 用賀の杜店\n","Address":"東京都世田谷区用賀1-10-8"},"geometry":{"type":"Point","coordinates":[139.6388562,35.6235193]}},{"type":"Feature","properties":{"Name":"\nファミリーマート 駒沢一丁目店\n","Address":"東京都世田谷区駒沢1-13-12"},"geometry":{"type":"Point","coordinates":[139.6593472,35.6318807]}},{"type":"Feature","properties":{"Name":"\nファミリーマート 世田谷ビジネススクエア店\n","Address":"東京都世田谷区用賀4-10-1"},"geometry":{"type":"Point","coordinates":[139.6328952,35.6266027]}},{"type":"Feature","properties":{"Name":"\nファミリーマート 世田谷成城通り店\n","Address":"東京都世田谷区上祖師谷5-1-20"},"geometry":{"type":"Point","coordinates":[139.5961685,35.657006]}},{"type":"Feature","properties":{"Name":"\nファミリーマート 池尻大橋店\n","Address":"東京都世田谷区池尻3-1-3MUTOH池尻ビルB1"},"geometry":{"type":"Point","coordinates":[139.6840897,35.6508344]}},{"type":"Feature","properties":{"Name":"\nファミリーマート 三軒茶屋東店\n","Address":"東京都世田谷区太子堂1-12-34"},"geometry":{"type":"Point","coordinates":[139.6740371,35.6446966]}},{"type":"Feature","properties":{"Name":"\nファミリーマート 用賀二丁目店\n","Address":"東京都世田谷区用賀2-41-9"},"geometry":{"type":"Point","coordinates":[139.6334922,35.6254159]}},{"type":"Feature","properties":{"Name":"\nファミリーマート 世田谷中町店\n","Address":"東京都世田谷区中町4丁目19番7"},"geometry":{"type":"Point","coordinates":[139.6447556,35.61630299999999]}},{"type":"Feature","properties":{"Name":"\nファミリーマート 世田谷淡島通り店\n","Address":"東京都世田谷区池尻4丁目13-15"},"geometry":{"type":"Point","coordinates":[139.6784585,35.6554202]}},{"type":"Feature","properties":{"Name":"\nファミリーマート あぶらや給田三丁目店\n","Address":"東京都世田谷区給田3丁目7-17"},"geometry":{"type":"Point","coordinates":[139.5934165,35.6669801]}},{"type":"Feature","properties":{"Name":"\nファミリーマート 玉川田園調布二丁目店\n","Address":"東京都世田谷区玉川田園調布2丁目15-14"},"geometry":{"type":"Point","coordinates":[139.6649772,35.6028822]}},{"type":"Feature","properties":{"Name":"\nファミリーマート 駒沢二丁目店\n","Address":"東京都世田谷区駒沢2丁目17-9"},"geometry":{"type":"Point","coordinates":[139.6565116,35.6313908]}},{"type":"Feature","properties":{"Name":"\nファミリーマート 等々力四丁目店\n","Address":"東京都世田谷区等々力4丁目22-13"},"geometry":{"type":"Point","coordinates":[139.6539403,35.6102314]}},{"type":"Feature","properties":{"Name":"\nファミリーマート 千歳船橋駅南店\n","Address":"東京都世田谷区桜丘2丁目20-10 築野ビル"},"geometry":{"type":"Point","coordinates":[139.6239416,35.6466639]}},{"type":"Feature","properties":{"Name":"\nファミリーマート 深沢五丁目店\n","Address":"東京都世田谷区深沢5-39-3"},"geometry":{"type":"Point","coordinates":[139.6467603,35.6201172]}},{"type":"Feature","properties":{"Name":"\nファミリーマート 246世田谷桜新町店\n","Address":"東京都世田谷区桜新町1丁目33-1"},"geometry":{"type":"Point","coordinates":[139.6437546,35.6271557]}},{"type":"Feature","properties":{"Name":"\nファミリーマート 世田谷松葉通り店\n","Address":"東京都世田谷区北烏山3丁目-10"},"geometry":{"type":"Point","coordinates":[139.6017061,35.6742393]}},{"type":"Feature","properties":{"Name":"\nファミリーマート 上野毛駅前店\n","Address":"東京都世田谷区上野毛1丁目14-7"},"geometry":{"type":"Point","coordinates":[139.639143,35.6122186]}},{"type":"Feature","properties":{"Name":"\nファミリーマート 世田谷下馬一丁目店\n","Address":"東京都世田谷区下馬1丁目19-14"},"geometry":{"type":"Point","coordinates":[139.6825936,35.6398832]}},{"type":"Feature","properties":{"Name":"\nファミリーマート まるいし祖師谷店\n","Address":"東京都世田谷区祖師谷4丁目24-1"},"geometry":{"type":"Point","coordinates":[139.6079786,35.6488425]}},{"type":"Feature","properties":{"Name":"\nファミリーマート 環八八幡山店\n","Address":"東京都世田谷区八幡山3丁目38"},"geometry":{"type":"Point","coordinates":[139.6138136,35.66765650000001]}},{"type":"Feature","properties":{"Name":"\nファミリーマート 世田谷北沢三丁目店\n","Address":"東京都世田谷区北沢3丁目18-3 コーポ奈良"},"geometry":{"type":"Point","coordinates":[139.6700626,35.6641937]}},{"type":"Feature","properties":{"Name":"\nファミリーマート 下馬駒沢通り店\n","Address":"東京都世田谷区下馬6丁目15-1"},"geometry":{"type":"Point","coordinates":[139.6804495,35.6290911]}},{"type":"Feature","properties":{"Name":"\nファミリーマート 世田谷等々力通り店\n","Address":"東京都世田谷区等々力5丁目2番地15"},"geometry":{"type":"Point","coordinates":[139.6568548,35.6066021]}},{"type":"Feature","properties":{"Name":"\nファミリーマート 下北沢駅南店\n","Address":"東京都世田谷区北沢2丁目14-8"},"geometry":{"type":"Point","coordinates":[139.6674622,35.6602601]}},{"type":"Feature","properties":{"Name":"\nファミリーマート サンズ経堂すずらん通り店\n","Address":"東京都世田谷区宮坂3丁目18-3"},"geometry":{"type":"Point","coordinates":[139.6362629,35.6526732]}},{"type":"Feature","properties":{"Name":"\nファミリーマート 下北沢駅北店\n","Address":"東京都世田谷区北沢2丁目30-13 ファインコート下北"},"geometry":{"type":"Point","coordinates":[139.6677303,35.6630228]}},{"type":"Feature","properties":{"Name":"\nファミリーマート 三軒茶屋一丁目店\n","Address":"東京都世田谷区三軒茶屋1-5-11"},"geometry":{"type":"Point","coordinates":[139.6746162,35.6404769]}},{"type":"Feature","properties":{"Name":"\nファミリーマート 小浦世田谷梅丘店\n","Address":"東京都世田谷区梅丘1丁目2-10"},"geometry":{"type":"Point","coordinates":[139.6526822,35.6529336]}},{"type":"Feature","properties":{"Name":"\nファミリーマート 駒沢大学駅前店\n","Address":"東京都世田谷区上馬3丁目18-14"},"geometry":{"type":"Point","coordinates":[139.6616308,35.6330014]}},{"type":"Feature","properties":{"Name":"\nファミリーマート 祖師ヶ谷大蔵駅前店\n","Address":"東京都世田谷区砧6丁目39-7 桃李花ビル"},"geometry":{"type":"Point","coordinates":[139.6089345,35.6428854]}},{"type":"Feature","properties":{"Name":"\nファミリーマート 世田谷千歳通り店\n","Address":"東京都世田谷区船橋1-30-4 グランハウス千歳船橋"},"geometry":{"type":"Point","coordinates":[139.6208642,35.6476732]}},{"type":"Feature","properties":{"Name":"\nファミリーマート 三軒茶屋目青通り店\n","Address":"東京都世田谷区太子堂4丁目18ー14"},"geometry":{"type":"Point","coordinates":[139.6695046,35.6452953]}},{"type":"Feature","properties":{"Name":"\nファミリーマート 尾山台駅南店\n","Address":"東京都世田谷区尾山台3丁目23-14"},"geometry":{"type":"Point","coordinates":[139.6540567,35.6064144]}},{"type":"Feature","properties":{"Name":"\nファミリーマート ハッピーロード尾山台店\n","Address":"東京都世田谷区尾山台3-9-7"},"geometry":{"type":"Point","coordinates":[139.6522843,35.6039949]}},{"type":"Feature","properties":{"Name":"\nファミリーマート 駒沢自由通り店\n","Address":"東京都世田谷区駒沢1-4-21"},"geometry":{"type":"Point","coordinates":[139.6613044,35.6322614]}},{"type":"Feature","properties":{"Name":"\nファミリーマート 三軒茶屋駅南口店\n","Address":"東京都世田谷区三軒茶屋1-41-8"},"geometry":{"type":"Point","coordinates":[139.6721838,35.643721]}},{"type":"Feature","properties":{"Name":"\nファミリーマート 駒沢大学駅西口店\n","Address":"東京都世田谷区上馬4丁目3-3 西本アカデミーハイツ"},"geometry":{"type":"Point","coordinates":[139.6619399,35.6338436]}},{"type":"Feature","properties":{"Name":"\nファミリーマート 経堂駅前店\n","Address":"東京都世田谷区経堂1丁目19-6 三丸ビル"},"geometry":{"type":"Point","coordinates":[139.6373273,35.6508546]}},{"type":"Feature","properties":{"Name":"\nファミリーマート ファミマ二子玉川店\n","Address":"東京都世田谷区玉川1丁目5100番1外"},"geometry":{"type":"Point","coordinates":[139.6305452,35.6091664]}},{"type":"Feature","properties":{"Name":"\nファミリーマート 世田谷新町店\n","Address":"東京都世田谷区新町3-1-1"},"geometry":{"type":"Point","coordinates":[139.6497711,35.6319655]}},{"type":"Feature","properties":{"Name":"\nファミリーマート 玉川台二丁目店\n","Address":"東京都世田谷区玉川台2-1-16"},"geometry":{"type":"Point","coordinates":[139.6308274,35.6219811]}},{"type":"Feature","properties":{"Name":"\nファミリーマート 千歳船橋駅北店\n","Address":"東京都世田谷区船橋1丁目7-6 クレストコート"},"geometry":{"type":"Point","coordinates":[139.6236727,35.6490373]}},{"type":"Feature","properties":{"Name":"\nファミリーマート 三軒茶屋駅北口店\n","Address":"東京都世田谷区太子堂2-15-1"},"geometry":{"type":"Point","coordinates":[139.671631,35.6440662]}},{"type":"Feature","properties":{"Name":"\nファミリーマート 世田谷二丁目店\n","Address":"東京都世田谷区世田谷2丁目25-7"},"geometry":{"type":"Point","coordinates":[139.6405522,35.6404222]}},{"type":"Feature","properties":{"Name":"\nファミリーマート 世田谷日大通り店\n","Address":"東京都世田谷区赤堤4-48-8"},"geometry":{"type":"Point","coordinates":[139.6395835,35.6658837]}},{"type":"Feature","properties":{"Name":"\nファミリーマート 桜丘世田谷通り店\n","Address":"東京都世田谷区桜丘3丁目26番3号"},"geometry":{"type":"Point","coordinates":[139.6280296,35.6393991]}},{"type":"Feature","properties":{"Name":"\nファミリーマート 明大前店\n","Address":"東京都世田谷区松原1-38-16"},"geometry":{"type":"Point","coordinates":[139.6505874,35.6699558]}},{"type":"Feature","properties":{"Name":"\nファミリーマート 千歳船橋駅前店\n","Address":"東京都世田谷区船橋1-9-45"},"geometry":{"type":"Point","coordinates":[139.6233607,35.6472732]}},{"type":"Feature","properties":{"Name":"\nファミリーマート 玉川三丁目店\n","Address":"東京都世田谷区玉川3丁目38-1"},"geometry":{"type":"Point","coordinates":[139.6236135,35.61641669999999]}},{"type":"Feature","properties":{"Name":"\nファミリーマート 世田谷北沢四丁目店\n","Address":"東京都世田谷区北沢4丁目33-4 ヴィラージュルナ"},"geometry":{"type":"Point","coordinates":[139.6725745,35.6683582]}},{"type":"Feature","properties":{"Name":"\nファミリーマート 桜新町一丁目店\n","Address":"東京都世田谷区桜新町1-40-7"},"geometry":{"type":"Point","coordinates":[139.6405288,35.6304181]}},{"type":"Feature","properties":{"Name":"\nファミリーマート 世田谷教育会館前店\n","Address":"東京都世田谷区弦巻4丁目28-14"},"geometry":{"type":"Point","coordinates":[139.6436942,35.6373689]}},{"type":"Feature","properties":{"Name":"\nファミリーマート 東玉川二丁目店\n","Address":"東京都世田谷区東玉川2丁目5番"},"geometry":{"type":"Point","coordinates":[139.6759835,35.592288]}},{"type":"Feature","properties":{"Name":"\nファミリーマート 船橋希望丘通り店\n","Address":"東京都世田谷区船橋7丁目14-4"},"geometry":{"type":"Point","coordinates":[139.6177391,35.6560345]}},{"type":"Feature","properties":{"Name":"\nファミリーマート 世田谷粕谷店\n","Address":"東京都世田谷区粕谷3丁目1番9"},"geometry":{"type":"Point","coordinates":[139.6076251,35.6589588]}},{"type":"Feature","properties":{"Name":"\nファミリーマート 太子堂店\n","Address":"東京都世田谷区太子堂2-29-3"},"geometry":{"type":"Point","coordinates":[139.671169,35.646777]}},{"type":"Feature","properties":{"Name":"\nファミリーマート 上馬交差点前店\n","Address":"東京都世田谷区野沢2-34-3"},"geometry":{"type":"Point","coordinates":[139.6651581,35.6353744]}},{"type":"Feature","properties":{"Name":"\nファミリーマート 日本大学文理学部店\n","Address":"東京都世田谷区桜上水3丁目25番40号"},"geometry":{"type":"Point","coordinates":[139.6350875,35.6621087]}},{"type":"Feature","properties":{"Name":"\nファミリーマート 上北沢駅前南口店\n","Address":"東京都世田谷区上北沢3-18-8"},"geometry":{"type":"Point","coordinates":[139.6247078,35.6681376]}},{"type":"Feature","properties":{"Name":"\nファミリーマート 関東中央病院店\n","Address":"東京都世田谷区上用賀6丁目25-1"},"geometry":{"type":"Point","coordinates":[139.6260875,35.6368348]}},{"type":"Feature","properties":{"Name":"\nファミリーマート 奥沢七丁目店\n","Address":"東京都世田谷区奥沢7-52-5"},"geometry":{"type":"Point","coordinates":[139.6628623,35.6090344]}},{"type":"Feature","properties":{"Name":"\nファミリーマート 豪徳寺駅前店\n","Address":"東京都世田谷区豪徳寺1-24-7"},"geometry":{"type":"Point","coordinates":[139.6467924,35.6533748]}},{"type":"Feature","properties":{"Name":"\nファミリーマート 明大前北店\n","Address":"東京都世田谷区松原2丁目44-6"},"geometry":{"type":"Point","coordinates":[139.6495669,35.6691199]}},{"type":"Feature","properties":{"Name":"\nファミリーマート 世田谷奥沢一丁目店\n","Address":"東京都世田谷区奥沢1丁目8番1号"},"geometry":{"type":"Point","coordinates":[139.6762421,35.5991938]}},{"type":"Feature","properties":{"Name":"\nファミリーマート 鎌田水神橋店\n","Address":"東京都世田谷区鎌田3-34-9"},"geometry":{"type":"Point","coordinates":[139.6135613,35.6238931]}},{"type":"Feature","properties":{"Name":"\nファミリーマート 三軒茶屋駅前店\n","Address":"東京都世田谷区太子堂4丁目20-10"},"geometry":{"type":"Point","coordinates":[139.6685203,35.6442237]}},{"type":"Feature","properties":{"Name":"\nファミリーマート 世田谷弦巻五丁目店\n","Address":"東京都世田谷区弦巻5丁目2-14"},"geometry":{"type":"Point","coordinates":[139.6396366,35.6355345]}},{"type":"Feature","properties":{"Name":"\nファミリーマート 下北沢駅前店\n","Address":"東京都世田谷区北沢2丁目25-20"},"geometry":{"type":"Point","coordinates":[139.6671732,35.6620619]}},{"type":"Feature","properties":{"Name":"\nファミリーマート 砧城山通り店\n","Address":"東京都世田谷区砧2-23-2"},"geometry":{"type":"Point","coordinates":[139.6168304,35.6452388]}},{"type":"Feature","properties":{"Name":"\nファミリーマート 芦花公園駅南店\n","Address":"東京都世田谷区南烏山2丁目36-1スクエアサイド芦花公園1F"},"geometry":{"type":"Point","coordinates":[139.6086557,35.6702528]}},{"type":"Feature","properties":{"Name":"\nファミリーマート 世田谷山下店\n","Address":"東京都世田谷区豪徳寺1-45-10冨士ビル1階"},"geometry":{"type":"Point","coordinates":[139.647253,35.6542176]}},{"type":"Feature","properties":{"Name":"\nファミリーマート 世田谷粕谷一丁目店\n","Address":"東京都世田谷区粕谷1丁目14番19号"},"geometry":{"type":"Point","coordinates":[139.6075405,35.6618523]}},{"type":"Feature","properties":{"Name":"\nファミリーマート 世田谷玉堤店\n","Address":"東京都世田谷区玉堤1丁目14番19号"},"geometry":{"type":"Point","coordinates":[139.6528016,35.5974814]}},{"type":"Feature","properties":{"Name":"\nファミリーマート 世田谷瀬田四丁目店\n","Address":"東京都世田谷区瀬田4丁目1番1号"},"geometry":{"type":"Point","coordinates":[139.6265274,35.6184374]}},{"type":"Feature","properties":{"Name":"\nファミリーマート 池尻二丁目店\n","Address":"東京都世田谷区池尻2-34-1 井上ビル"},"geometry":{"type":"Point","coordinates":[139.6822572,35.6485334]}},{"type":"Feature","properties":{"Name":"\nファミリーマート 弦巻一丁目店\n","Address":"東京都世田谷区弦巻1丁目14-17"},"geometry":{"type":"Point","coordinates":[139.6548371,35.6370076]}},{"type":"Feature","properties":{"Name":"\nファミリーマート 代田橋店\n","Address":"東京都世田谷区大原2丁目17-6"},"geometry":{"type":"Point","coordinates":[139.6589002,35.6705639]}},{"type":"Feature","properties":{"Name":"\nファミリーマート 世田谷新町三丁目店\n","Address":"東京都世田谷区新町3-22-1"},"geometry":{"type":"Point","coordinates":[139.646311,35.63193]}},{"type":"Feature","properties":{"Name":"\nファミリーマート 宮の坂店\n","Address":"東京都世田谷区宮坂1-25-1"},"geometry":{"type":"Point","coordinates":[139.6449225,35.648196]}},{"type":"Feature","properties":{"Name":"\nファミリーマート 千歳烏山店\n","Address":"東京都世田谷区南烏山4丁目22-11"},"geometry":{"type":"Point","coordinates":[139.6037243,35.6706027]}},{"type":"Feature","properties":{"Name":"\nファミリーマート 経堂北店\n","Address":"東京都世田谷区経堂2-6-2"},"geometry":{"type":"Point","coordinates":[139.6352577,35.6517652]}},{"type":"Feature","properties":{"Name":"\nファミリーマート 上馬店\n","Address":"東京都世田谷区上馬1-31-9"},"geometry":{"type":"Point","coordinates":[139.6685277,35.6387504]}},{"type":"Feature","properties":{"Name":"\nファミリーマート 南烏山店\n","Address":"東京都世田谷区南烏山6-38-10"},"geometry":{"type":"Point","coordinates":[139.5999445,35.6720803]}},{"type":"Feature","properties":{"Name":"\nファミリーマート 千歳烏山駅北店\n","Address":"東京都世田谷区南烏山6丁目3-6"},"geometry":{"type":"Point","coordinates":[139.6001248,35.6691149]}},{"type":"Feature","properties":{"Name":"\nファミリーマート 祖師ヶ谷大蔵駅西店\n","Address":"東京都世田谷区祖師谷3丁目32-5"},"geometry":{"type":"Point","coordinates":[139.6081394,35.6433746]}},{"type":"Feature","properties":{"Name":"\nファミリーマート 南烏山五丁目店\n","Address":"東京都世田谷区南烏山5丁目24番8号"},"geometry":{"type":"Point","coordinates":[139.6032853,35.6654297]}},{"type":"Feature","properties":{"Name":"\nファミリーマート 千歳烏山駅西店\n","Address":"東京都世田谷区南烏山6丁目6番6号"},"geometry":{"type":"Point","coordinates":[139.5991362,35.6676104]}},{"type":"Feature","properties":{"Name":"\nファミリーマート 世田谷若林一丁目店\n","Address":"東京都世田谷区若林1丁目26-8"},"geometry":{"type":"Point","coordinates":[139.660924,35.6463006]}},{"type":"Feature","properties":{"Name":"\nファミリーマート 千歳台四丁目店\n","Address":"東京都世田谷区千歳台4丁目26-14"},"geometry":{"type":"Point","coordinates":[139.6141252,35.6591006]}},{"type":"Feature","properties":{"Name":"\nファミリーマート 経堂農大通り店\n","Address":"東京都世田谷区経堂1-26-12"},"geometry":{"type":"Point","coordinates":[139.6360139,35.6484664]}},{"type":"Feature","properties":{"Name":"\nファミリーマート 桜新町駅前店\n","Address":"東京都世田谷区桜新町2丁目10-1"},"geometry":{"type":"Point","coordinates":[139.643949,35.6317028]}},{"type":"Feature","properties":{"Name":"\nファミリーマート 深沢二丁目店\n","Address":"東京都世田谷区深沢2-7-3"},"geometry":{"type":"Point","coordinates":[139.6628125,35.6195792]}},{"type":"Feature","properties":{"Name":"\nファミリーマート 松陰神社駅前店\n","Address":"東京都世田谷区若林4-25-1"},"geometry":{"type":"Point","coordinates":[139.655398,35.6443825]}},{"type":"Feature","properties":{"Name":"\nファミリーマート 東松原駅前店\n","Address":"東京都世田谷区松原5丁目3-13第一玉川ビル1階"},"geometry":{"type":"Point","coordinates":[139.6546689,35.6621111]}},{"type":"Feature","properties":{"Name":"\nファミリーマート 喜多見駅北店\n","Address":"東京都世田谷区喜多見9-2-23"},"geometry":{"type":"Point","coordinates":[139.5875869,35.6371903]}},{"type":"Feature","properties":{"Name":"\nファミリーマート 桜上水駅南口店\n","Address":"東京都世田谷区桜上水5丁目24-9"},"geometry":{"type":"Point","coordinates":[139.631955,35.6672909]}},{"type":"Feature","properties":{"Name":"\nファミリーマート 千歳烏山駅西口店\n","Address":"東京都世田谷区南烏山6丁目4-12"},"geometry":{"type":"Point","coordinates":[139.5997041,35.668863]}},{"type":"Feature","properties":{"Name":"\nファミリーマート 用賀駅前店\n","Address":"東京都世田谷区用賀2丁目38-10"},"geometry":{"type":"Point","coordinates":[139.634439,35.6266858]}},{"type":"Feature","properties":{"Name":"\nファミリーマート 世田谷松原一丁目店\n","Address":"東京都世田谷区松原1丁目41-8"},"geometry":{"type":"Point","coordinates":[139.65145,35.6688816]}},{"type":"Feature","properties":{"Name":"\nミニストップ 経堂店\n","Address":"東京都世田谷区経堂5-31-5"},"geometry":{"type":"Point","coordinates":[139.6347236,35.6480387]}},{"type":"Feature","properties":{"Name":"\nミニストップ 大原店\n","Address":"東京都世田谷区大原2-23-15"},"geometry":{"type":"Point","coordinates":[139.6604438,35.6722303]}},{"type":"Feature","properties":{"Name":"\nミニストップ 成城通店\n","Address":"東京都世田谷区上祖師谷4-6-7"},"geometry":{"type":"Point","coordinates":[139.5970134,35.6539733]}},{"type":"Feature","properties":{"Name":"\nミニストップ 駒沢1丁目店\n","Address":"東京都世田谷区駒沢1-2-25"},"geometry":{"type":"Point","coordinates":[139.6616361,35.6315518]}},{"type":"Feature","properties":{"Name":"\nミニストップ 日本大学商学部店\n","Address":"東京都世田谷区砧5丁目2-1"},"geometry":{"type":"Point","coordinates":[139.6088322,35.635677]}},{"type":"Feature","properties":{"Name":"\nセブンイレブン 世田谷等々力7丁目店\n","Address":"東京都世田谷区等々力7-5-21"},"geometry":{"type":"Point","coordinates":[139.6546984,35.6127535]}},{"type":"Feature","properties":{"Name":"\nセブンイレブン 世田谷池尻3丁目店\n","Address":"東京都世田谷区池尻3-23-2"},"geometry":{"type":"Point","coordinates":[139.6798156,35.6485208]}},{"type":"Feature","properties":{"Name":"\nセブンイレブン 世田谷三宿2丁目店\n","Address":"東京都世田谷区三宿2ー6ー3"},"geometry":{"type":"Point","coordinates":[139.6774286,35.6526212]}},{"type":"Feature","properties":{"Name":"\nセブンイレブン 世田谷祖師谷1丁目店\n","Address":"東京都世田谷区祖師谷1-10-5"},"geometry":{"type":"Point","coordinates":[139.6089061,35.6442456]}},{"type":"Feature","properties":{"Name":"\nセブンイレブン 世田谷等々力5丁目店\n","Address":"東京都世田谷区等々力5-31-19"},"geometry":{"type":"Point","coordinates":[139.6589216,35.6100763]}},{"type":"Feature","properties":{"Name":"\nセブンイレブン 世田谷桜上水駅南店\n","Address":"東京都世田谷区桜上水5-23-9"},"geometry":{"type":"Point","coordinates":[139.6319561,35.6669475]}},{"type":"Feature","properties":{"Name":"\nセブンイレブン 世田谷太子堂2丁目店\n","Address":"東京都世田谷区太子堂2-25-2"},"geometry":{"type":"Point","coordinates":[139.6700087,35.6465343]}},{"type":"Feature","properties":{"Name":"\nセブンイレブン 世田谷日体大店\n","Address":"東京都世田谷区深沢5-5-14"},"geometry":{"type":"Point","coordinates":[139.6537114,35.6214499]}},{"type":"Feature","properties":{"Name":"\nセブンイレブン 世田谷鎌田2丁目店\n","Address":"東京都世田谷区鎌田2ー22ー8"},"geometry":{"type":"Point","coordinates":[139.6087604,35.6199939]}},{"type":"Feature","properties":{"Name":"\nセブンイレブン 世田谷桜新町1丁目店\n","Address":"東京都世田谷区桜新町1丁目18-14"},"geometry":{"type":"Point","coordinates":[139.6425666,35.6310734]}},{"type":"Feature","properties":{"Name":"\nセブンイレブン 世田谷赤堤2丁目店\n","Address":"東京都世田谷区赤堤2-3-8"},"geometry":{"type":"Point","coordinates":[139.6475406,35.6567106]}},{"type":"Feature","properties":{"Name":"\nセブンイレブン 世田谷玉川店\n","Address":"東京都世田谷区玉川2ー7ー1"},"geometry":{"type":"Point","coordinates":[139.6326004,35.6113016]}},{"type":"Feature","properties":{"Name":"\nセブンイレブン 世田谷千歳船橋駅北店\n","Address":"東京都世田谷区船橋1-13-22"},"geometry":{"type":"Point","coordinates":[139.6228858,35.6480777]}},{"type":"Feature","properties":{"Name":"\nセブンイレブン 世田谷駒沢大学駅西店\n","Address":"東京都世田谷区駒沢2-6-1"},"geometry":{"type":"Point","coordinates":[139.6604055,35.6329644]}},{"type":"Feature","properties":{"Name":"\nセブンイレブン 二子玉川駅西店\n","Address":"東京都世田谷区玉川3-11-7"},"geometry":{"type":"Point","coordinates":[139.6256771,35.6136912]}},{"type":"Feature","properties":{"Name":"\nセブンイレブン 世田谷深沢店\n","Address":"東京都世田谷区深沢1-11-6"},"geometry":{"type":"Point","coordinates":[139.6603253,35.6157219]}},{"type":"Feature","properties":{"Name":"\nセブンイレブン 世田谷玉川2丁目店\n","Address":"東京都世田谷区玉川2-14-5"},"geometry":{"type":"Point","coordinates":[139.6297235,35.6129248]}},{"type":"Feature","properties":{"Name":"\nセブンイレブン 世田谷駒沢公園通り店\n","Address":"東京都世田谷区等々力7-27-12"},"geometry":{"type":"Point","coordinates":[139.6532185,35.6173798]}},{"type":"Feature","properties":{"Name":"\nセブンイレブン 世田谷尾山台店\n","Address":"東京都世田谷区尾山台2-32-16"},"geometry":{"type":"Point","coordinates":[139.652798,35.6032643]}},{"type":"Feature","properties":{"Name":"\nセブンイレブン 世田谷等々力1丁目店\n","Address":"東京都世田谷区等々力1-7-18"},"geometry":{"type":"Point","coordinates":[139.6469989,35.6014864]}},{"type":"Feature","properties":{"Name":"\nセブンイレブン 世田谷東松原駅前店\n","Address":"東京都世田谷区松原5ー56ー12"},"geometry":{"type":"Point","coordinates":[139.6549386,35.6630338]}},{"type":"Feature","properties":{"Name":"\nセブンイレブン 世田谷玉堤1丁目店\n","Address":"東京都世田谷区玉堤1-27-15"},"geometry":{"type":"Point","coordinates":[139.6491063,35.598272]}},{"type":"Feature","properties":{"Name":"\nセブンイレブン 世田谷松原駅前店\n","Address":"東京都世田谷区赤堤2ー43ー10"},"geometry":{"type":"Point","coordinates":[139.6421724,35.6596637]}},{"type":"Feature","properties":{"Name":"\nセブンイレブン 世田谷松原店\n","Address":"東京都世田谷区松原2-35-12"},"geometry":{"type":"Point","coordinates":[139.6457387,35.6678675]}},{"type":"Feature","properties":{"Name":"\nセブンイレブン 世田谷奥沢2丁目店\n","Address":"東京都世田谷区奥沢2-11-7"},"geometry":{"type":"Point","coordinates":[139.6717494,35.6048294]}},{"type":"Feature","properties":{"Name":"\nセブンイレブン 世田谷南烏山6丁目店\n","Address":"東京都世田谷区南烏山6-28-6"},"geometry":{"type":"Point","coordinates":[139.5986773,35.6696078]}},{"type":"Feature","properties":{"Name":"\nセブンイレブン 世田谷三宿1丁目店\n","Address":"東京都世田谷区三宿1-29-1"},"geometry":{"type":"Point","coordinates":[139.6747977,35.6503858]}},{"type":"Feature","properties":{"Name":"\nセブンイレブン 世田谷池尻2丁目店\n","Address":"東京都世田谷区池尻2-37-16"},"geometry":{"type":"Point","coordinates":[139.6797221,35.6478292]}},{"type":"Feature","properties":{"Name":"\nセブンイレブン 世田谷松原5丁目店\n","Address":"東京都世田谷区松原5丁目40-9"},"geometry":{"type":"Point","coordinates":[139.6498279,35.6634944]}},{"type":"Feature","properties":{"Name":"\nセブンイレブン 世田谷成城6丁目店\n","Address":"東京都世田谷区成城6-9-7"},"geometry":{"type":"Point","coordinates":[139.5984486,35.6406896]}},{"type":"Feature","properties":{"Name":"\nセブンイレブン 世田谷区役所前店\n","Address":"東京都世田谷区若林4-31-8"},"geometry":{"type":"Point","coordinates":[139.6536772,35.6459104]}},{"type":"Feature","properties":{"Name":"\nセブンイレブン 世田谷用賀4丁目店\n","Address":"東京都世田谷区用賀4-11-15"},"geometry":{"type":"Point","coordinates":[139.6334856,35.6278503]}},{"type":"Feature","properties":{"Name":"\nセブンイレブン 世田谷千歳台5丁目店\n","Address":"東京都世田谷区千歳台5-22-16"},"geometry":{"type":"Point","coordinates":[139.6114893,35.6583249]}},{"type":"Feature","properties":{"Name":"\nセブンイレブン 二子玉川駅前店\n","Address":"東京都世田谷区玉川3-6-5"},"geometry":{"type":"Point","coordinates":[139.6259838,35.6124858]}},{"type":"Feature","properties":{"Name":"\nセブンイレブン 世田谷奥沢3丁目店\n","Address":"東京都世田谷区奥沢3-9-8"},"geometry":{"type":"Point","coordinates":[139.6718568,35.6000195]}},{"type":"Feature","properties":{"Name":"\nセブンイレブン 世田谷桜丘2丁目店\n","Address":"東京都世田谷区桜丘2丁目6-14"},"geometry":{"type":"Point","coordinates":[139.628743,35.6457219]}},{"type":"Feature","properties":{"Name":"\nセブンイレブン 世田谷駒留通り店\n","Address":"東京都世田谷区世田谷1-41-7"},"geometry":{"type":"Point","coordinates":[139.6439788,35.6404444]}},{"type":"Feature","properties":{"Name":"\nセブンイレブン 世田谷キャロットタワー前店\n","Address":"東京都世田谷区太子堂4-22-6"},"geometry":{"type":"Point","coordinates":[139.6699647,35.644121]}},{"type":"Feature","properties":{"Name":"\nセブンイレブン 世田谷榎店\n","Address":"東京都世田谷区祖師谷6-33-15"},"geometry":{"type":"Point","coordinates":[139.6030291,35.658153]}},{"type":"Feature","properties":{"Name":"\nセブンイレブン 世田谷南烏山5丁目店\n","Address":"東京都世田谷区南烏山5-20-16"},"geometry":{"type":"Point","coordinates":[139.6029124,35.6666384]}},{"type":"Feature","properties":{"Name":"\nセブンイレブン 等々力駅前店\n","Address":"東京都世田谷区等々力3ー22ー9"},"geometry":{"type":"Point","coordinates":[139.6478729,35.6112965]}},{"type":"Feature","properties":{"Name":"\nセブンイレブン 上北沢5丁目店\n","Address":"東京都世田谷区上北沢5-13-3"},"geometry":{"type":"Point","coordinates":[139.6171696,35.6718766]}},{"type":"Feature","properties":{"Name":"\nセブンイレブン 世田谷梅ヶ丘駅前店\n","Address":"東京都世田谷区梅丘1ー22ー6"},"geometry":{"type":"Point","coordinates":[139.6533318,35.6556229]}},{"type":"Feature","properties":{"Name":"\nセブンイレブン 世田谷サザエさん通り店\n","Address":"東京都世田谷区桜新町1-32-1"},"geometry":{"type":"Point","coordinates":[139.644552,35.6275163]}},{"type":"Feature","properties":{"Name":"\nセブンイレブン 世田谷羽根木店\n","Address":"東京都世田谷区羽根木2-33-15"},"geometry":{"type":"Point","coordinates":[139.6572786,35.6657342]}},{"type":"Feature","properties":{"Name":"\nセブンイレブン 世田谷代沢3丁目店\n","Address":"東京都世田谷区代沢3ー12ー21"},"geometry":{"type":"Point","coordinates":[139.6732622,35.65474570000001]}},{"type":"Feature","properties":{"Name":"\nセブンイレブン 世田谷代田1丁目店\n","Address":"東京都世田谷区代田1-32-9"},"geometry":{"type":"Point","coordinates":[139.6643366,35.6537283]}},{"type":"Feature","properties":{"Name":"\nセブンイレブン 世田谷成城1丁目店\n","Address":"東京都世田谷区成城1-24-5"},"geometry":{"type":"Point","coordinates":[139.6029804,35.6349142]}},{"type":"Feature","properties":{"Name":"\nセブンイレブン 世田谷砧4丁目店\n","Address":"東京都世田谷区砧4-6-8"},"geometry":{"type":"Point","coordinates":[139.6127296,35.6406312]}},{"type":"Feature","properties":{"Name":"\nセブンイレブン 世田谷下北沢店\n","Address":"東京都世田谷区代沢5-29-1"},"geometry":{"type":"Point","coordinates":[139.6675264,35.65788]}},{"type":"Feature","properties":{"Name":"\nセブンイレブン 世田谷上野毛駅前店\n","Address":"東京都世田谷区上野毛2-7-15"},"geometry":{"type":"Point","coordinates":[139.6382367,35.6114497]}},{"type":"Feature","properties":{"Name":"\nセブンイレブン 世田谷経堂3丁目店\n","Address":"東京都世田谷区経堂3-21-6"},"geometry":{"type":"Point","coordinates":[139.6289231,35.6521163]}},{"type":"Feature","properties":{"Name":"\nセブンイレブン 世田谷豪徳寺1丁目店\n","Address":"東京都世田谷区豪徳寺1-19-4"},"geometry":{"type":"Point","coordinates":[139.6468251,35.652244]}},{"type":"Feature","properties":{"Name":"\nセブンイレブン 池尻大橋店\n","Address":"東京都世田谷区池尻2-31-10"},"geometry":{"type":"Point","coordinates":[139.683329,35.6495557]}},{"type":"Feature","properties":{"Name":"\nセブンイレブン 世田谷砧3丁目店\n","Address":"東京都世田谷区砧3-4-6"},"geometry":{"type":"Point","coordinates":[139.6115484,35.6348315]}},{"type":"Feature","properties":{"Name":"\nセブンイレブン 世田谷給田4丁目店\n","Address":"東京都世田谷区給田4-20-23"},"geometry":{"type":"Point","coordinates":[139.589488,35.6700884]}},{"type":"Feature","properties":{"Name":"\nセブンイレブン 三軒茶屋栄通り店\n","Address":"東京都世田谷区三軒茶屋1-34-11"},"geometry":{"type":"Point","coordinates":[139.6723487,35.6419132]}},{"type":"Feature","properties":{"Name":"\nセブンイレブン 駒沢病院前店\n","Address":"東京都世田谷区上馬4-6-7"},"geometry":{"type":"Point","coordinates":[139.6606143,35.6342957]}},{"type":"Feature","properties":{"Name":"\nセブンイレブン 世田谷赤堤4丁目店\n","Address":"東京都世田谷区赤堤4-37-8"},"geometry":{"type":"Point","coordinates":[139.6416663,35.6645427]}},{"type":"Feature","properties":{"Name":"\nセブンイレブン 世田谷駒澤大学南店\n","Address":"東京都世田谷区駒沢4丁目1-24"},"geometry":{"type":"Point","coordinates":[139.6555787,35.6261335]}},{"type":"Feature","properties":{"Name":"\nセブンイレブン 世田谷北沢店\n","Address":"東京都世田谷区北沢5ー43ー7"},"geometry":{"type":"Point","coordinates":[139.6661518,35.6715091]}},{"type":"Feature","properties":{"Name":"\nセブンイレブン 用賀インター店\n","Address":"東京都世田谷区玉川台2-39-6"},"geometry":{"type":"Point","coordinates":[139.6271966,35.626076]}},{"type":"Feature","properties":{"Name":"\nセブンイレブン 世田谷砧6丁目店\n","Address":"東京都世田谷区砧6-39-2"},"geometry":{"type":"Point","coordinates":[139.6094141,35.6428433]}},{"type":"Feature","properties":{"Name":"\nセブンイレブン 世田谷粕谷3丁目店\n","Address":"東京都世田谷区粕谷3丁目19"},"geometry":{"type":"Point","coordinates":[139.6078392,35.6604484]}},{"type":"Feature","properties":{"Name":"\nセブンイレブン 世田谷上北沢駅前店\n","Address":"東京都世田谷区上北沢4丁目11番5号"},"geometry":{"type":"Point","coordinates":[139.6250954,35.6686804]}},{"type":"Feature","properties":{"Name":"\nセブンイレブン 世田谷下馬北店\n","Address":"東京都世田谷区下馬1-12-2"},"geometry":{"type":"Point","coordinates":[139.6844616,35.6404471]}},{"type":"Feature","properties":{"Name":"\nセブンイレブン 下馬1丁目店\n","Address":"東京都世田谷区下馬1-5-4"},"geometry":{"type":"Point","coordinates":[139.6830936,35.6389469]}},{"type":"Feature","properties":{"Name":"\nセブンイレブン 世田谷瀬田4丁目店\n","Address":"東京都世田谷区瀬田4ー24ー12"},"geometry":{"type":"Point","coordinates":[139.6306127,35.6212525]}},{"type":"Feature","properties":{"Name":"\nセブンイレブン 世田谷成城8丁目店\n","Address":"東京都世田谷区成城8-32-13"},"geometry":{"type":"Point","coordinates":[139.5933084,35.6496693]}},{"type":"Feature","properties":{"Name":"\nセブンイレブン 世田谷上野毛店\n","Address":"東京都世田谷区上野毛1-29-3"},"geometry":{"type":"Point","coordinates":[139.6377103,35.6136375]}},{"type":"Feature","properties":{"Name":"\nセブンイレブン 世田谷羽根木2丁目店\n","Address":"東京都世田谷区羽根木2-4-15"},"geometry":{"type":"Point","coordinates":[139.6591784,35.6688086]}},{"type":"Feature","properties":{"Name":"\nセブンイレブン 世田谷三軒茶屋2丁目店\n","Address":"東京都世田谷区三軒茶屋2-10-13"},"geometry":{"type":"Point","coordinates":[139.6687921,35.6423455]}},{"type":"Feature","properties":{"Name":"\nセブンイレブン 世田谷桜小前店\n","Address":"東京都世田谷区世田谷2-13-1"},"geometry":{"type":"Point","coordinates":[139.6447998,35.6419487]}},{"type":"Feature","properties":{"Name":"\nセブンイレブン 世田谷桜丘5丁目店\n","Address":"東京都世田谷区桜丘5-20-7"},"geometry":{"type":"Point","coordinates":[139.6211805,35.6462741]}},{"type":"Feature","properties":{"Name":"\nセブンイレブン 世田谷下高井戸店\n","Address":"東京都世田谷区赤堤5-30-15"},"geometry":{"type":"Point","coordinates":[139.6386794,35.6652381]}},{"type":"Feature","properties":{"Name":"\nセブンイレブン 世田谷弦巻1丁目店\n","Address":"東京都世田谷区弦巻1-21-1"},"geometry":{"type":"Point","coordinates":[139.6508707,35.6393103]}},{"type":"Feature","properties":{"Name":"\nセブンイレブン 世田谷下北沢駅前店\n","Address":"東京都世田谷区北沢2-26-6"},"geometry":{"type":"Point","coordinates":[139.6659936,35.6620364]}},{"type":"Feature","properties":{"Name":"\nセブンイレブン 世田谷代田駅前店\n","Address":"東京都世田谷区代田2丁目19-13"},"geometry":{"type":"Point","coordinates":[139.6606576,35.6578136]}},{"type":"Feature","properties":{"Name":"\nセブンイレブン 世田谷桜上水1丁目店\n","Address":"東京都世田谷区桜上水1-21-11"},"geometry":{"type":"Point","coordinates":[139.6288845,35.6566207]}},{"type":"Feature","properties":{"Name":"\nセブンイレブン 野沢店\n","Address":"東京都世田谷区下馬6-16-3"},"geometry":{"type":"Point","coordinates":[139.6795476,35.6286725]}},{"type":"Feature","properties":{"Name":"\nセブンイレブン 世田谷若林4丁目店\n","Address":"東京都世田谷区若林4-3-11"},"geometry":{"type":"Point","coordinates":[139.6597764,35.6461392]}},{"type":"Feature","properties":{"Name":"\nセブンイレブン 世田谷経堂本町通り店\n","Address":"東京都世田谷区宮坂1-44-25"},"geometry":{"type":"Point","coordinates":[139.6408895,35.6506288]}},{"type":"Feature","properties":{"Name":"\nセブンイレブン 世田谷桜新町駅前店\n","Address":"東京都世田谷区桜新町1-12-13"},"geometry":{"type":"Point","coordinates":[139.6449829,35.6315035]}},{"type":"Feature","properties":{"Name":"\nセブンイレブン 世田谷船橋6丁目店\n","Address":"東京都世田谷区船橋6-17-18"},"geometry":{"type":"Point","coordinates":[139.6237166,35.6584757]}},{"type":"Feature","properties":{"Name":"\nセブンイレブン 世田谷喜多見駅前店\n","Address":"東京都世田谷区喜多見8丁目18-2"},"geometry":{"type":"Point","coordinates":[139.5885459,35.636173]}},{"type":"Feature","properties":{"Name":"\nセブンイレブン 世田谷上北沢店\n","Address":"東京都世田谷区上北沢5丁目1-1"},"geometry":{"type":"Point","coordinates":[139.623042,35.6708483]}},{"type":"Feature","properties":{"Name":"\nセブンイレブン 世田谷用賀駅東店\n","Address":"東京都世田谷区用賀4-1-6"},"geometry":{"type":"Point","coordinates":[139.6354565,35.6277514]}},{"type":"Feature","properties":{"Name":"\nセブンイレブン 世田谷上北沢1丁目店\n","Address":"東京都世田谷区上北沢1-22-31"},"geometry":{"type":"Point","coordinates":[139.6232146,35.6632754]}},{"type":"Feature","properties":{"Name":"\nセブンイレブン 馬事公苑店\n","Address":"東京都世田谷区桜3-8-11"},"geometry":{"type":"Point","coordinates":[139.6363065,35.6397946]}},{"type":"Feature","properties":{"Name":"\nセブンイレブン 世田谷池ノ上駅南店\n","Address":"東京都世田谷区代沢2-36-26"},"geometry":{"type":"Point","coordinates":[139.6727007,35.6592016]}},{"type":"Feature","properties":{"Name":"\nセブンイレブン 世田谷経堂すずらん通り店\n","Address":"東京都世田谷区宮坂3-25-2"},"geometry":{"type":"Point","coordinates":[139.6345082,35.65366170000001]}},{"type":"Feature","properties":{"Name":"\nセブンイレブン 世田谷上馬2丁目店\n","Address":"東京都世田谷区上馬2-31-9"},"geometry":{"type":"Point","coordinates":[139.6640236,35.6397907]}},{"type":"Feature","properties":{"Name":"\nセブンイレブン 世田谷北烏山8丁目店\n","Address":"東京都世田谷区北烏山8-23-15"},"geometry":{"type":"Point","coordinates":[139.5900469,35.6787367]}},{"type":"Feature","properties":{"Name":"\nセブンイレブン 世田谷1丁目店\n","Address":"東京都世田谷区世田谷1ー10ー18"},"geometry":{"type":"Point","coordinates":[139.6546544,35.6421652]}},{"type":"Feature","properties":{"Name":"\nセブンイレブン 下北沢駅南口店\n","Address":"東京都世田谷区北沢2-11-8"},"geometry":{"type":"Point","coordinates":[139.6678437,35.6612899]}},{"type":"Feature","properties":{"Name":"\nセブンイレブン 世田谷大蔵1丁目店\n","Address":"東京都世田谷区大蔵1-16-13"},"geometry":{"type":"Point","coordinates":[139.6161943,35.6349811]}},{"type":"Feature","properties":{"Name":"\nセブンイレブン 世田谷玉川台店\n","Address":"東京都世田谷区玉川台2-21-16"},"geometry":{"type":"Point","coordinates":[139.6320063,35.6239465]}},{"type":"Feature","properties":{"Name":"\nセブンイレブン 明大前すずらん通り店\n","Address":"東京都世田谷区松原1-37-19"},"geometry":{"type":"Point","coordinates":[139.6505984,35.6690619]}},{"type":"Feature","properties":{"Name":"\nセブンイレブン 世田谷代田店\n","Address":"東京都世田谷区代田1-38-3"},"geometry":{"type":"Point","coordinates":[139.6603419,35.6543827]}},{"type":"Feature","properties":{"Name":"\nセブンイレブン 世田谷新町3丁目店\n","Address":"東京都世田谷区新町3-22-8"},"geometry":{"type":"Point","coordinates":[139.646001,35.6323612]}},{"type":"Feature","properties":{"Name":"\nセブンイレブン 世田谷船橋7丁目店\n","Address":"東京都世田谷区船橋7-7-3"},"geometry":{"type":"Point","coordinates":[139.6188734,35.656855]}},{"type":"Feature","properties":{"Name":"\nセブンイレブン 三軒茶屋世田谷通り店\n","Address":"東京都世田谷区三軒茶屋2丁目19-7"},"geometry":{"type":"Point","coordinates":[139.6653129,35.6429633]}},{"type":"Feature","properties":{"Name":"\nセブンイレブン 世田谷上馬5丁目店\n","Address":"東京都世田谷区上馬5-38-14"},"geometry":{"type":"Point","coordinates":[139.6592029,35.6419222]}},{"type":"Feature","properties":{"Name":"\nセブンイレブン AIM東京農業大学世田谷CP店\n","Address":"東京都世田谷区桜丘1-1-1"},"geometry":{"type":"Point","coordinates":[139.6326968,35.6413636]}},{"type":"Feature","properties":{"Name":"\nセブンイレブン 下高井戸駅北口店\n","Address":"東京都世田谷区松原3-31-8"},"geometry":{"type":"Point","coordinates":[139.6427475,35.6668755]}},{"type":"Feature","properties":{"Name":"\nセブンイレブン 世田谷通り店\n","Address":"東京都世田谷区桜丘3-27-6"},"geometry":{"type":"Point","coordinates":[139.6262987,35.6388363]}},{"type":"Feature","properties":{"Name":"\nセブンイレブン 世田谷玉川4丁目店\n","Address":"東京都世田谷区玉川4-12-11"},"geometry":{"type":"Point","coordinates":[139.6254777,35.61659880000001]}},{"type":"Feature","properties":{"Name":"\nセブンイレブン 世田谷祖師谷5丁目店\n","Address":"東京都世田谷区祖師谷5-29-12"},"geometry":{"type":"Point","coordinates":[139.6085206,35.6538282]}},{"type":"Feature","properties":{"Name":"\nセブンイレブン 世田谷千歳郵便局前店\n","Address":"東京都世田谷区経堂1丁目33番16"},"geometry":{"type":"Point","coordinates":[139.6327839,35.6495469]}},{"type":"Feature","properties":{"Name":"\nセブンイレブン 世田谷中央病院前店\n","Address":"東京都世田谷区世田谷1-5-8"},"geometry":{"type":"Point","coordinates":[139.650996,35.6408966]}},{"type":"Feature","properties":{"Name":"\nセブンイレブン 世田谷上用賀1丁目店\n","Address":"東京都世田谷区上用賀1-8-5"},"geometry":{"type":"Point","coordinates":[139.6331151,35.6321947]}},{"type":"Feature","properties":{"Name":"\nセブンイレブン 世田谷駒沢4丁目店\n","Address":"東京都世田谷区駒沢4-23"},"geometry":{"type":"Point","coordinates":[139.6542963,35.629765]}},{"type":"Feature","properties":{"Name":"\nセブンイレブン 駒澤大学店\n","Address":"東京都世田谷区駒沢1-23-1"},"geometry":{"type":"Point","coordinates":[139.6588587,35.6294152]}},{"type":"Feature","properties":{"Name":"\nセブンイレブン 世田谷等々力4丁目店\n","Address":"東京都世田谷区等々力4-4-11"},"geometry":{"type":"Point","coordinates":[139.6505322,35.6080911]}},{"type":"Feature","properties":{"Name":"\nセブンイレブン 三軒茶屋駅東店\n","Address":"東京都世田谷区太子堂2-12-1"},"geometry":{"type":"Point","coordinates":[139.6735356,35.6450583]}},{"type":"Feature","properties":{"Name":"\nセブンイレブン 世田谷給田中央店\n","Address":"東京都世田谷区南烏山6-15-3"},"geometry":{"type":"Point","coordinates":[139.5966545,35.6683729]}},{"type":"Feature","properties":{"Name":"\nセブンイレブン KOYO東邦大学大橋病院店\n","Address":"東京都目黒区大橋2-22-36"},"geometry":{"type":"Point","coordinates":[139.6843373,35.65207729999999]}},{"type":"Feature","properties":{"Name":"\nセブンイレブン 千歳烏山駅南店\n","Address":"東京都世田谷区南烏山5-17-11"},"geometry":{"type":"Point","coordinates":[139.600845,35.6675096]}},{"type":"Feature","properties":{"Name":"\nセブンイレブン 下北沢駅南西口店\n","Address":"東京都世田谷区北沢2-19-2"},"geometry":{"type":"Point","coordinates":[139.6671116,35.6604852]}},{"type":"Feature","properties":{"Name":"\nセブンイレブン 世田谷給田3丁目店\n","Address":"東京都世田谷区給田3-31-17"},"geometry":{"type":"Point","coordinates":[139.5927672,35.6677276]}},{"type":"Feature","properties":{"Name":"\nセブンイレブン 世田谷4丁目店\n","Address":"東京都世田谷区世田谷4-7-1"},"geometry":{"type":"Point","coordinates":[139.6526381,35.64268879999999]}},{"type":"Feature","properties":{"Name":"\nセブンイレブン 世田谷船橋希望ヶ丘通り店\n","Address":"東京都世田谷区船橋7-15-4"},"geometry":{"type":"Point","coordinates":[139.6167272,35.6559606]}},{"type":"Feature","properties":{"Name":"\nセブンイレブン 若林陸橋店\n","Address":"東京都世田谷区若林2-32-15"},"geometry":{"type":"Point","coordinates":[139.6633334,35.6500532]}},{"type":"Feature","properties":{"Name":"\nセブンイレブン 世田谷上馬4丁目店\n","Address":"東京都世田谷区上馬4-1-3"},"geometry":{"type":"Point","coordinates":[139.6639875,35.6353695]}},{"type":"Feature","properties":{"Name":"\nセブンイレブン 世田谷宮坂3丁目店\n","Address":"東京都世田谷区宮坂3-41-19"},"geometry":{"type":"Point","coordinates":[139.63397,35.6569774]}},{"type":"Feature","properties":{"Name":"\nセブンイレブン 世田谷千歳台2丁目店\n","Address":"東京都世田谷区千歳台2-27-20"},"geometry":{"type":"Point","coordinates":[139.6146086,35.6506349]}},{"type":"Feature","properties":{"Name":"\nセブンイレブン 世田谷野沢2丁目店\n","Address":"東京都世田谷区野沢2-13-3"},"geometry":{"type":"Point","coordinates":[139.6691067,35.6325373]}},{"type":"Feature","properties":{"Name":"\nセブンイレブン 小田急喜多見店\n","Address":"東京都世田谷区喜多見9-2-6"},"geometry":{"type":"Point","coordinates":[139.587422,35.636684]}},{"type":"Feature","properties":{"Name":"\nセブンイレブン 世田谷北烏山店\n","Address":"東京都世田谷区北烏山9-1-3"},"geometry":{"type":"Point","coordinates":[139.5970455,35.6710234]}},{"type":"Feature","properties":{"Name":"\nセブンイレブン 千歳烏山駅西口店\n","Address":"東京都世田谷区南烏山6-4-5"},"geometry":{"type":"Point","coordinates":[139.6002803,35.6681785]}},{"type":"Feature","properties":{"Name":"\nセブンイレブン 三軒茶屋玉川通り店\n","Address":"東京都世田谷区三軒茶屋1-37-2"},"geometry":{"type":"Point","coordinates":[139.6707458,35.6426406]}},{"type":"Feature","properties":{"Name":"\nセブンイレブン 世田谷南烏山2丁目店\n","Address":"東京都世田谷区南烏山2-1-1"},"geometry":{"type":"Point","coordinates":[139.6071223,35.66496]}},{"type":"Feature","properties":{"Name":"\nセブンイレブン 小田急経堂店\n","Address":"東京都世田谷区経堂2-1-3"},"geometry":{"type":"Point","coordinates":[139.6365618,35.651342]}},{"type":"Feature","properties":{"Name":"\nニューヤマザキデイリーストア 砧店\n","Address":"東京都世田谷区砧1-7-8"},"geometry":{"type":"Point","coordinates":[139.6188332,35.6360031]}},{"type":"Feature","properties":{"Name":"\nニューヤマザキデイリーストア 玉川病院店\n","Address":"東京都世田谷区瀬田4-8-1"},"geometry":{"type":"Point","coordinates":[139.6243409,35.6204416]}},{"type":"Feature","properties":{"Name":"\nデイリーヤマザキ 八幡山2丁目店\n","Address":"東京都世田谷区八幡山2-25-5"},"geometry":{"type":"Point","coordinates":[139.6147305,35.6612664]}},{"type":"Feature","properties":{"Name":"\nデイリーヤマザキ 多摩堤通り店\n","Address":"東京都世田谷区喜多見5-4-5"},"geometry":{"type":"Point","coordinates":[139.6028393,35.6281761]}},{"type":"Feature","properties":{"Name":"\nデイリーヤマザキ 国士舘大学店\n","Address":"東京都世田谷区若林4-32-5"},"geometry":{"type":"Point","coordinates":[139.6539288,35.6472049]}},{"type":"Feature","properties":{"Name":"\nデイリーヤマザキ 喜多見5丁目店\n","Address":"東京都世田谷区喜多見5-26-18"},"geometry":{"type":"Point","coordinates":[139.6001693,35.6308615]}},{"type":"Feature","properties":{"Name":"\nデイリーヤマザキ 池尻店\n","Address":"東京都世田谷区池尻3-20-2"},"geometry":{"type":"Point","coordinates":[139.6813982,35.649314]}}]}